[{"name":"Palmeiras do Tocantins","state":"TO","location":{"lat":-6.616584,"lng":-47.546429},"asciiName":"Palmeiras do Tocantins"},{"name":"Barro Preto","state":"BA","location":{"lat":-14.794773,"lng":-39.476029},"asciiName":"Barro Preto"},{"name":"Fernando de Noronha","state":"PE","location":{"lat":-3.839601,"lng":-32.410733},"asciiName":"Fernando de Noronha"},{"name":"Campo de Santana","state":"PB","location":{"lat":-6.487585,"lng":-35.636707},"asciiName":"Campo de Santana"},{"name":"Pracuúba","state":"AP","location":{"lat":1.745427,"lng":-50.789248},"asciiName":"Pracuuba"},{"name":"Amapá","state":"AP","location":{"lat":2.052669,"lng":-50.795653},"asciiName":"Amapa"},{"name":"Bujari","state":"AC","location":{"lat":-9.815277,"lng":-67.955029},"asciiName":"Bujari"},{"name":"Plácido de Castro","state":"AC","location":{"lat":-10.28064,"lng":-67.137133},"asciiName":"Placido de Castro"},{"name":"Tarauacá","state":"AC","location":{"lat":-8.156975,"lng":-70.772154},"asciiName":"Tarauaca"},{"name":"Feijó","state":"AC","location":{"lat":-8.170536,"lng":-70.350973},"asciiName":"Feijo"},{"name":"Caracaraí","state":"RR","location":{"lat":1.827659,"lng":-61.130378},"asciiName":"Caracarai"},{"name":"Iracema","state":"RR","location":{"lat":2.183046,"lng":-61.041546},"asciiName":"Iracema"},{"name":"Mucajaí","state":"RR","location":{"lat":2.439982,"lng":-60.909619},"asciiName":"Mucajai"},{"name":"Alto Alegre","state":"RR","location":{"lat":2.98858,"lng":-61.307167},"asciiName":"Alto Alegre"},{"name":"Amajari","state":"RR","location":{"lat":3.645714,"lng":-61.369245},"asciiName":"Amajari"},{"name":"Rorainópolis","state":"RR","location":{"lat":0.939956,"lng":-60.438923},"asciiName":"Rorainopolis"},{"name":"São Luiz","state":"RR","location":{"lat":1.010193,"lng":-60.041894},"asciiName":"Sao Luiz"},{"name":"São João da Baliza","state":"RR","location":{"lat":0.951659,"lng":-59.913293},"asciiName":"Sao Joao da Baliza"},{"name":"Caroebe","state":"RR","location":{"lat":0.884203,"lng":-59.695886},"asciiName":"Caroebe"},{"name":"Cantá","state":"RR","location":{"lat":2.60994,"lng":-60.605827},"asciiName":"Canta"},{"name":"Bonfim","state":"RR","location":{"lat":3.361614,"lng":-59.8333},"asciiName":"Bonfim"},{"name":"Normandia","state":"RR","location":{"lat":3.885305,"lng":-59.620402},"asciiName":"Normandia"},{"name":"Pacaraima","state":"RR","location":{"lat":4.479895,"lng":-61.147695},"asciiName":"Pacaraima"},{"name":"Uiramutã","state":"RR","location":{"lat":4.603144,"lng":-60.181464},"asciiName":"Uiramuta"},{"name":"Pedra Branca do Amapari","state":"AP","location":{"lat":0.777424,"lng":-51.950306},"asciiName":"Pedra Branca do Amapari"},{"name":"Serra do Navio","state":"AP","location":{"lat":0.901357,"lng":-52.003636},"asciiName":"Serra do Navio"},{"name":"Porto Grande","state":"AP","location":{"lat":0.71243,"lng":-51.415499},"asciiName":"Porto Grande"},{"name":"Ferreira Gomes","state":"AP","location":{"lat":0.857256,"lng":-51.179523},"asciiName":"Ferreira Gomes"},{"name":"Itaubal","state":"AP","location":{"lat":0.596137,"lng":-50.670828},"asciiName":"Itaubal"},{"name":"Cutias","state":"AP","location":{"lat":0.987565,"lng":-50.799169},"asciiName":"Cutias"},{"name":"Tartarugalzinho","state":"AP","location":{"lat":1.506519,"lng":-50.90874},"asciiName":"Tartarugalzinho"},{"name":"Oiapoque","state":"AP","location":{"lat":3.84074,"lng":-51.833123},"asciiName":"Oiapoque"},{"name":"Calçoene","state":"AP","location":{"lat":2.504747,"lng":-50.951233},"asciiName":"Calcoene"},{"name":"Marechal Thaumaturgo","state":"AC","location":{"lat":-8.938983,"lng":-72.799704},"asciiName":"Marechal Thaumaturgo"},{"name":"Jordão","state":"AC","location":{"lat":-9.430912,"lng":-71.897391},"asciiName":"Jordao"},{"name":"Assis Brasil","state":"AC","location":{"lat":-10.929765,"lng":-69.573794},"asciiName":"Assis Brasil"},{"name":"Santa Rosa do Purus","state":"AC","location":{"lat":-9.446515,"lng":-70.49025},"asciiName":"Santa Rosa do Purus"},{"name":"Manoel Urbano","state":"AC","location":{"lat":-8.832911,"lng":-69.267862},"asciiName":"Manoel Urbano"},{"name":"Epitaciolândia","state":"AC","location":{"lat":-11.018771,"lng":-68.734109},"asciiName":"Epitaciolandia"},{"name":"Brasiléia","state":"AC","location":{"lat":-10.994994,"lng":-68.749696},"asciiName":"Brasileia"},{"name":"Xapuri","state":"AC","location":{"lat":-10.651598,"lng":-68.496857},"asciiName":"Xapuri"},{"name":"Capixaba","state":"AC","location":{"lat":-10.566031,"lng":-67.686006},"asciiName":"Capixaba"},{"name":"Sena Madureira","state":"AC","location":{"lat":-9.063499,"lng":-68.671278},"asciiName":"Sena Madureira"},{"name":"Senador Guiomard","state":"AC","location":{"lat":-10.149686,"lng":-67.736185},"asciiName":"Senador Guiomard"},{"name":"Envira","state":"AM","location":{"lat":-7.437889,"lng":-70.028143},"asciiName":"Envira"},{"name":"Porto Acre","state":"AC","location":{"lat":-9.581378,"lng":-67.547815},"asciiName":"Porto Acre"},{"name":"Boca do Acre","state":"AM","location":{"lat":-8.742322,"lng":-67.391926},"asciiName":"Boca do Acre"},{"name":"Mâncio Lima","state":"AC","location":{"lat":-7.616575,"lng":-72.899708},"asciiName":"Mancio Lima"},{"name":"Porto Walter","state":"AC","location":{"lat":-8.263233,"lng":-72.753747},"asciiName":"Porto Walter"},{"name":"Rodrigues Alves","state":"AC","location":{"lat":-7.738638,"lng":-72.661015},"asciiName":"Rodrigues Alves"},{"name":"Cruzeiro do Sul","state":"AC","location":{"lat":-7.627625,"lng":-72.675582},"asciiName":"Cruzeiro do Sul"},{"name":"Guajará","state":"AM","location":{"lat":-7.537971,"lng":-72.590713},"asciiName":"Guajara"},{"name":"Ipixuna","state":"AM","location":{"lat":-7.047909,"lng":-71.693426},"asciiName":"Ipixuna"},{"name":"Eirunepé","state":"AM","location":{"lat":-6.656767,"lng":-69.86616},"asciiName":"Eirunepe"},{"name":"Amaturá","state":"AM","location":{"lat":-3.374547,"lng":-68.200456},"asciiName":"Amatura"},{"name":"Maçambara","state":"RS","location":{"lat":-29.144485,"lng":-56.067444},"asciiName":"Macambara"},{"name":"São Borja","state":"RS","location":{"lat":-28.657828,"lng":-56.003603},"asciiName":"Sao Borja"},{"name":"Garruchos","state":"RS","location":{"lat":-28.194414,"lng":-55.638284},"asciiName":"Garruchos"},{"name":"Herval","state":"RS","location":{"lat":-32.023985,"lng":-53.394362},"asciiName":"Herval"},{"name":"Arroio Grande","state":"RS","location":{"lat":-32.232657,"lng":-53.086155},"asciiName":"Arroio Grande"},{"name":"Dom Feliciano","state":"RS","location":{"lat":-30.700354,"lng":-52.102645},"asciiName":"Dom Feliciano"},{"name":"Chuvisca","state":"RS","location":{"lat":-30.75041,"lng":-51.973659},"asciiName":"Chuvisca"},{"name":"Atalaia do Norte","state":"AM","location":{"lat":-4.370551,"lng":-70.1967},"asciiName":"Atalaia do Norte"},{"name":"Benjamin Constant","state":"AM","location":{"lat":-4.37768,"lng":-70.034157},"asciiName":"Benjamin Constant"},{"name":"Tabatinga","state":"AM","location":{"lat":-4.241597,"lng":-69.938273},"asciiName":"Tabatinga"},{"name":"Itamarati","state":"AM","location":{"lat":-6.424591,"lng":-68.260027},"asciiName":"Itamarati"},{"name":"São Paulo de Olivença","state":"AM","location":{"lat":-3.472919,"lng":-68.964581},"asciiName":"Sao Paulo de Olivenca"},{"name":"Santo Antônio do Içá","state":"AM","location":{"lat":-3.095443,"lng":-67.946279},"asciiName":"Santo Antonio do Ica"},{"name":"Tonantins","state":"AM","location":{"lat":-2.865825,"lng":-67.791904},"asciiName":"Tonantins"},{"name":"Chuí","state":"RS","location":{"lat":-33.68663,"lng":-53.459369},"asciiName":"Chui"},{"name":"Barra do Quaraí","state":"RS","location":{"lat":-30.202859,"lng":-57.549722},"asciiName":"Barra do Quarai"},{"name":"Uruguaiana","state":"RS","location":{"lat":-29.761436,"lng":-57.085287},"asciiName":"Uruguaiana"},{"name":"Quaraí","state":"RS","location":{"lat":-30.384033,"lng":-56.448254},"asciiName":"Quarai"},{"name":"Alegrete","state":"RS","location":{"lat":-29.790166,"lng":-55.794862},"asciiName":"Alegrete"},{"name":"Sant' Ana do Livramento","state":"RS","location":{"lat":-30.88772,"lng":-55.531467},"asciiName":"Sant' Ana do Livramento"},{"name":"Dom Pedrito","state":"RS","location":{"lat":-30.97559,"lng":-54.66936},"asciiName":"Dom Pedrito"},{"name":"Manoel Viana","state":"RS","location":{"lat":-29.585935,"lng":-55.484112},"asciiName":"Manoel Viana"},{"name":"São Francisco de Assis","state":"RS","location":{"lat":-29.554689,"lng":-55.12531},"asciiName":"Sao Francisco de Assis"},{"name":"Rosário do Sul","state":"RS","location":{"lat":-30.251483,"lng":-54.922106},"asciiName":"Rosario do Sul"},{"name":"Cacequi","state":"RS","location":{"lat":-29.888295,"lng":-54.821998},"asciiName":"Cacequi"},{"name":"Nova Esperança do Sul","state":"RS","location":{"lat":-29.406643,"lng":-54.829302},"asciiName":"Nova Esperanca do Sul"},{"name":"São Vicente do Sul","state":"RS","location":{"lat":-29.688161,"lng":-54.682643},"asciiName":"Sao Vicente do Sul"},{"name":"Jaguari","state":"RS","location":{"lat":-29.493559,"lng":-54.702993},"asciiName":"Jaguari"},{"name":"Itaqui","state":"RS","location":{"lat":-29.131051,"lng":-56.551478},"asciiName":"Itaqui"},{"name":"Pinheiro Machado","state":"RS","location":{"lat":-31.57944,"lng":-53.379789},"asciiName":"Pinheiro Machado"},{"name":"Pedro Osório","state":"RS","location":{"lat":-31.864243,"lng":-52.818389},"asciiName":"Pedro Osorio"},{"name":"Cerrito","state":"RS","location":{"lat":-31.841917,"lng":-52.800442},"asciiName":"Cerrito"},{"name":"Capão do Leão","state":"RS","location":{"lat":-31.75646,"lng":-52.488879},"asciiName":"Capao do Leao"},{"name":"Morro Redondo","state":"RS","location":{"lat":-31.588737,"lng":-52.626064},"asciiName":"Morro Redondo"},{"name":"Bagé","state":"RS","location":{"lat":-31.32965,"lng":-54.09992},"asciiName":"Bage"},{"name":"Hulha Negra","state":"RS","location":{"lat":-31.406721,"lng":-53.866702},"asciiName":"Hulha Negra"},{"name":"Unistalda","state":"RS","location":{"lat":-29.039953,"lng":-55.151731},"asciiName":"Unistalda"},{"name":"Itacurubi","state":"RS","location":{"lat":-28.791281,"lng":-55.24467},"asciiName":"Itacurubi"},{"name":"Santo Antônio das Missões","state":"RS","location":{"lat":-28.513977,"lng":-55.225077},"asciiName":"Santo Antonio das Missoes"},{"name":"Santiago","state":"RS","location":{"lat":-29.189675,"lng":-54.866624},"asciiName":"Santiago"},{"name":"Bossoroca","state":"RS","location":{"lat":-28.729089,"lng":-54.903507},"asciiName":"Bossoroca"},{"name":"São Luiz Gonzaga","state":"RS","location":{"lat":-28.412032,"lng":-54.955942},"asciiName":"Sao Luiz Gonzaga"},{"name":"São Miguel das Missões","state":"RS","location":{"lat":-28.556044,"lng":-54.555879},"asciiName":"Sao Miguel das Missoes"},{"name":"São Nicolau","state":"RS","location":{"lat":-28.183365,"lng":-55.265441},"asciiName":"Sao Nicolau"},{"name":"Dezesseis de Novembro","state":"RS","location":{"lat":-28.219036,"lng":-55.061709},"asciiName":"Dezesseis de Novembro"},{"name":"Pirapó","state":"RS","location":{"lat":-28.043888,"lng":-55.20013},"asciiName":"Pirapo"},{"name":"Porto Xavier","state":"RS","location":{"lat":-27.908182,"lng":-55.13791},"asciiName":"Porto Xavier"},{"name":"Roque Gonzales","state":"RS","location":{"lat":-28.129681,"lng":-55.026609},"asciiName":"Roque Gonzales"},{"name":"São Pedro do Butiá","state":"RS","location":{"lat":-28.12425,"lng":-54.892603},"asciiName":"Sao Pedro do Butia"},{"name":"Salvador das Missões","state":"RS","location":{"lat":-28.123337,"lng":-54.837318},"asciiName":"Salvador das Missoes"},{"name":"São Paulo das Missões","state":"RS","location":{"lat":-28.019546,"lng":-54.940352},"asciiName":"Sao Paulo das Missoes"},{"name":"Porto Lucena","state":"RS","location":{"lat":-27.85688,"lng":-55.010028},"asciiName":"Porto Lucena"},{"name":"Campina das Missões","state":"RS","location":{"lat":-27.988833,"lng":-54.841648},"asciiName":"Campina das Missoes"},{"name":"Sério","state":"RS","location":{"lat":-29.390428,"lng":-52.2685},"asciiName":"Serio"},{"name":"Mato Leitão","state":"RS","location":{"lat":-29.528474,"lng":-52.12776},"asciiName":"Mato Leitao"},{"name":"Santa Clara do Sul","state":"RS","location":{"lat":-29.47474,"lng":-52.08426},"asciiName":"Santa Clara do Sul"},{"name":"Cruzeiro do Sul","state":"RS","location":{"lat":-29.514835,"lng":-51.992778},"asciiName":"Cruzeiro do Sul"},{"name":"Bom Retiro do Sul","state":"RS","location":{"lat":-29.607076,"lng":-51.945593},"asciiName":"Bom Retiro do Sul"},{"name":"Estrela","state":"RS","location":{"lat":-29.500207,"lng":-51.949508},"asciiName":"Estrela"},{"name":"Lajeado","state":"RS","location":{"lat":-29.459086,"lng":-51.964427},"asciiName":"Lajeado"},{"name":"Arroio do Meio","state":"RS","location":{"lat":-29.401353,"lng":-51.955735},"asciiName":"Arroio do Meio"},{"name":"Barão do Triunfo","state":"RS","location":{"lat":-30.389072,"lng":-51.738441},"asciiName":"Barao do Triunfo"},{"name":"Arroio dos Ratos","state":"RS","location":{"lat":-30.087545,"lng":-51.727479},"asciiName":"Arroio dos Ratos"},{"name":"São Jerônimo","state":"RS","location":{"lat":-29.97158,"lng":-51.72507},"asciiName":"Sao Jeronimo"},{"name":"General Câmara","state":"RS","location":{"lat":-29.903173,"lng":-51.761178},"asciiName":"General Camara"},{"name":"Triunfo","state":"RS","location":{"lat":-29.929129,"lng":-51.707471},"asciiName":"Triunfo"},{"name":"Mariana Pimentel","state":"RS","location":{"lat":-30.353048,"lng":-51.580307},"asciiName":"Mariana Pimentel"},{"name":"Eldorado do Sul","state":"RS","location":{"lat":-30.084676,"lng":-51.618702},"asciiName":"Eldorado do Sul"},{"name":"Charqueadas","state":"RS","location":{"lat":-29.962478,"lng":-51.628872},"asciiName":"Charqueadas"},{"name":"Taquari","state":"RS","location":{"lat":-29.79433,"lng":-51.865346},"asciiName":"Taquari"},{"name":"Tabaí","state":"RS","location":{"lat":-29.643041,"lng":-51.682292},"asciiName":"Tabai"},{"name":"Fazenda Vilanova","state":"RS","location":{"lat":-29.588511,"lng":-51.821714},"asciiName":"Fazenda Vilanova"},{"name":"Colinas","state":"RS","location":{"lat":-29.394781,"lng":-51.855564},"asciiName":"Colinas"},{"name":"Teutônia","state":"RS","location":{"lat":-29.448205,"lng":-51.804375},"asciiName":"Teutonia"},{"name":"Paverama","state":"RS","location":{"lat":-29.548554,"lng":-51.733925},"asciiName":"Paverama"},{"name":"Poço das Antas","state":"RS","location":{"lat":-29.448097,"lng":-51.671938},"asciiName":"Poco das Antas"},{"name":"Montenegro","state":"RS","location":{"lat":-29.682414,"lng":-51.467903},"asciiName":"Montenegro"},{"name":"Pareci Novo","state":"RS","location":{"lat":-29.636538,"lng":-51.3974},"asciiName":"Pareci Novo"},{"name":"Brochier","state":"RS","location":{"lat":-29.550136,"lng":-51.594516},"asciiName":"Brochier"},{"name":"Maratá","state":"RS","location":{"lat":-29.545715,"lng":-51.55732},"asciiName":"Marata"},{"name":"Mundo Novo","state":"MS","location":{"lat":-23.93554,"lng":-54.281012},"asciiName":"Mundo Novo"},{"name":"Eldorado","state":"MS","location":{"lat":-23.786838,"lng":-54.283775},"asciiName":"Eldorado"},{"name":"Guaíra","state":"PR","location":{"lat":-24.085005,"lng":-54.257327},"asciiName":"Guaira"},{"name":"Itaquiraí","state":"MS","location":{"lat":-23.477868,"lng":-54.186971},"asciiName":"Itaquirai"},{"name":"Altônia","state":"PR","location":{"lat":-23.875916,"lng":-53.895809},"asciiName":"Altonia"},{"name":"Francisco Alves","state":"PR","location":{"lat":-24.066725,"lng":-53.846124},"asciiName":"Francisco Alves"},{"name":"São Jorge do Patrocínio","state":"PR","location":{"lat":-23.764744,"lng":-53.882275},"asciiName":"Sao Jorge do Patrocinio"},{"name":"Esperança Nova","state":"PR","location":{"lat":-23.723782,"lng":-53.810979},"asciiName":"Esperanca Nova"},{"name":"Sales Oliveira","state":"SP","location":{"lat":-20.769612,"lng":-47.836873},"asciiName":"Sales Oliveira"},{"name":"Glória de Dourados","state":"MS","location":{"lat":-22.413628,"lng":-54.233502},"asciiName":"Gloria de Dourados"},{"name":"Deodápolis","state":"MS","location":{"lat":-22.276272,"lng":-54.168163},"asciiName":"Deodapolis"},{"name":"Novo Horizonte do Sul","state":"MS","location":{"lat":-22.669322,"lng":-53.860148},"asciiName":"Novo Horizonte do Sul"},{"name":"Ivinhema","state":"MS","location":{"lat":-22.304571,"lng":-53.818414},"asciiName":"Ivinhema"},{"name":"Angélica","state":"MS","location":{"lat":-22.152658,"lng":-53.770789},"asciiName":"Angelica"},{"name":"Nova Alvorada do Sul","state":"MS","location":{"lat":-21.465688,"lng":-54.382491},"asciiName":"Nova Alvorada do Sul"},{"name":"Santa Cruz de Monte Castelo","state":"PR","location":{"lat":-22.954225,"lng":-53.296342},"asciiName":"Santa Cruz de Monte Castelo"},{"name":"São Pedro do Paraná","state":"PR","location":{"lat":-22.823882,"lng":-53.224141},"asciiName":"Sao Pedro do Parana"},{"name":"Porto Rico","state":"PR","location":{"lat":-22.774742,"lng":-53.267731},"asciiName":"Porto Rico"},{"name":"São João do Pau d'Alho","state":"SP","location":{"lat":-21.266249,"lng":-51.667172},"asciiName":"Sao Joao do Pau d'Alho"},{"name":"Dracena","state":"SP","location":{"lat":-21.484311,"lng":-51.535034},"asciiName":"Dracena"},{"name":"Tupi Paulista","state":"SP","location":{"lat":-21.382455,"lng":-51.575004},"asciiName":"Tupi Paulista"},{"name":"Monte Castelo","state":"SP","location":{"lat":-21.298092,"lng":-51.567889},"asciiName":"Monte Castelo"},{"name":"Nova Independência","state":"SP","location":{"lat":-21.10263,"lng":-51.490531},"asciiName":"Nova Independencia"},{"name":"Bela Vista do Paraíso","state":"PR","location":{"lat":-22.993653,"lng":-51.192657},"asciiName":"Bela Vista do Paraiso"},{"name":"Porecatu","state":"PR","location":{"lat":-22.753724,"lng":-51.37949},"asciiName":"Porecatu"},{"name":"Alvorada do Sul","state":"PR","location":{"lat":-22.781282,"lng":-51.229709},"asciiName":"Alvorada do Sul"},{"name":"Nantes","state":"SP","location":{"lat":-22.615559,"lng":-51.239977},"asciiName":"Nantes"},{"name":"Jaraguari","state":"MS","location":{"lat":-20.138615,"lng":-54.399626},"asciiName":"Jaraguari"},{"name":"Bandeirantes","state":"MS","location":{"lat":-19.92749,"lng":-54.358458},"asciiName":"Bandeirantes"},{"name":"Ribas do Rio Pardo","state":"MS","location":{"lat":-20.444533,"lng":-53.758819},"asciiName":"Ribas do Rio Pardo"},{"name":"Camapuã","state":"MS","location":{"lat":-19.534672,"lng":-54.043065},"asciiName":"Camapua"},{"name":"Água Clara","state":"MS","location":{"lat":-20.445245,"lng":-52.87899},"asciiName":"Agua Clara"},{"name":"Alcinópolis","state":"MS","location":{"lat":-18.325546,"lng":-53.704223},"asciiName":"Alcinopolis"},{"name":"Itiquira","state":"MT","location":{"lat":-17.214693,"lng":-54.142214},"asciiName":"Itiquira"},{"name":"Alto Garças","state":"MT","location":{"lat":-16.946226,"lng":-53.527209},"asciiName":"Alto Garcas"},{"name":"Costa Rica","state":"MS","location":{"lat":-18.543202,"lng":-53.128732},"asciiName":"Costa Rica"},{"name":"Cerro Largo","state":"RS","location":{"lat":-28.146251,"lng":-54.742791},"asciiName":"Cerro Largo"},{"name":"Caibaté","state":"RS","location":{"lat":-28.290475,"lng":-54.645407},"asciiName":"Caibate"},{"name":"Guarani das Missões","state":"RS","location":{"lat":-28.149117,"lng":-54.562937},"asciiName":"Guarani das Missoes"},{"name":"Cândido Godói","state":"RS","location":{"lat":-27.951509,"lng":-54.751722},"asciiName":"Candido Godoi"},{"name":"Ubiretama","state":"RS","location":{"lat":-28.040385,"lng":-54.685952},"asciiName":"Ubiretama"},{"name":"Santo Cristo","state":"RS","location":{"lat":-27.826259,"lng":-54.661963},"asciiName":"Santo Cristo"},{"name":"Senador Salgado Filho","state":"RS","location":{"lat":-28.025007,"lng":-54.550717},"asciiName":"Senador Salgado Filho"},{"name":"Porto Vera Cruz","state":"RS","location":{"lat":-27.740504,"lng":-54.89937},"asciiName":"Porto Vera Cruz"},{"name":"Alecrim","state":"RS","location":{"lat":-27.657856,"lng":-54.764849},"asciiName":"Alecrim"},{"name":"Porto Mauá","state":"RS","location":{"lat":-27.579579,"lng":-54.665739},"asciiName":"Porto Maua"},{"name":"Foz do Iguaçu","state":"PR","location":{"lat":-25.542748,"lng":-54.582689},"asciiName":"Foz do Iguacu"},{"name":"Candiota","state":"RS","location":{"lat":-31.551553,"lng":-53.677275},"asciiName":"Candiota"},{"name":"Santa Vitória do Palmar","state":"RS","location":{"lat":-33.52498,"lng":-53.371692},"asciiName":"Santa Vitoria do Palmar"},{"name":"Jaguarão","state":"RS","location":{"lat":-32.560378,"lng":-53.377027},"asciiName":"Jaguarao"},{"name":"Lavras do Sul","state":"RS","location":{"lat":-30.807056,"lng":-53.893077},"asciiName":"Lavras do Sul"},{"name":"Caçapava do Sul","state":"RS","location":{"lat":-30.51436,"lng":-53.482684},"asciiName":"Cacapava do Sul"},{"name":"São Gabriel","state":"RS","location":{"lat":-30.333688,"lng":-54.321657},"asciiName":"Sao Gabriel"},{"name":"Mata","state":"RS","location":{"lat":-29.564893,"lng":-54.464105},"asciiName":"Mata"},{"name":"Dilermando de Aguiar","state":"RS","location":{"lat":-29.705393,"lng":-54.212241},"asciiName":"Dilermando de Aguiar"},{"name":"São Pedro do Sul","state":"RS","location":{"lat":-29.620163,"lng":-54.185516},"asciiName":"Sao Pedro do Sul"},{"name":"Toropi","state":"RS","location":{"lat":-29.478246,"lng":-54.224398},"asciiName":"Toropi"},{"name":"Vila Nova do Sul","state":"RS","location":{"lat":-30.346131,"lng":-53.876041},"asciiName":"Vila Nova do Sul"},{"name":"São Sepé","state":"RS","location":{"lat":-30.164289,"lng":-53.560296},"asciiName":"Sao Sepe"},{"name":"Formigueiro","state":"RS","location":{"lat":-30.003518,"lng":-53.495928},"asciiName":"Formigueiro"},{"name":"Santa Maria","state":"RS","location":{"lat":-29.686817,"lng":-53.814946},"asciiName":"Santa Maria"},{"name":"São Martinho da Serra","state":"RS","location":{"lat":-29.539667,"lng":-53.859002},"asciiName":"Sao Martinho da Serra"},{"name":"Itaara","state":"RS","location":{"lat":-29.601285,"lng":-53.772494},"asciiName":"Itaara"},{"name":"Silveira Martins","state":"RS","location":{"lat":-29.646741,"lng":-53.591018},"asciiName":"Silveira Martins"},{"name":"Ivorá","state":"RS","location":{"lat":-29.523224,"lng":-53.584214},"asciiName":"Ivora"},{"name":"Piratini","state":"RS","location":{"lat":-31.447291,"lng":-53.097296},"asciiName":"Piratini"},{"name":"Santana da Boa Vista","state":"RS","location":{"lat":-30.869738,"lng":-53.109981},"asciiName":"Santana da Boa Vista"},{"name":"Canguçu","state":"RS","location":{"lat":-31.39598,"lng":-52.678254},"asciiName":"Cangucu"},{"name":"Encruzilhada do Sul","state":"RS","location":{"lat":-30.542998,"lng":-52.520381},"asciiName":"Encruzilhada do Sul"},{"name":"Restinga Seca","state":"RS","location":{"lat":-29.818778,"lng":-53.380657},"asciiName":"Restinga Seca"},{"name":"Agudo","state":"RS","location":{"lat":-29.644743,"lng":-53.251458},"asciiName":"Agudo"},{"name":"Faxinal do Soturno","state":"RS","location":{"lat":-29.578836,"lng":-53.44839},"asciiName":"Faxinal do Soturno"},{"name":"São João do Polêsine","state":"RS","location":{"lat":-29.619435,"lng":-53.44392},"asciiName":"Sao Joao do Polesine"},{"name":"Dona Francisca","state":"RS","location":{"lat":-29.619507,"lng":-53.361737},"asciiName":"Dona Francisca"},{"name":"Nova Palma","state":"RS","location":{"lat":-29.470981,"lng":-53.468924},"asciiName":"Nova Palma"},{"name":"Nicolau Vergueiro","state":"RS","location":{"lat":-28.529842,"lng":-52.467629},"asciiName":"Nicolau Vergueiro"},{"name":"Palmeira das Missões","state":"RS","location":{"lat":-27.900652,"lng":-53.313378},"asciiName":"Palmeira das Missoes"},{"name":"Chapada","state":"RS","location":{"lat":-28.055865,"lng":-53.066519},"asciiName":"Chapada"},{"name":"Novo Barreiro","state":"RS","location":{"lat":-27.9077,"lng":-53.110292},"asciiName":"Novo Barreiro"},{"name":"Barra Funda","state":"RS","location":{"lat":-27.920467,"lng":-53.039067},"asciiName":"Barra Funda"},{"name":"Nova Boa Vista","state":"RS","location":{"lat":-27.9926,"lng":-52.978377},"asciiName":"Nova Boa Vista"},{"name":"Boa Vista das Missões","state":"RS","location":{"lat":-27.667123,"lng":-53.310168},"asciiName":"Boa Vista das Missoes"},{"name":"Jaboticaba","state":"RS","location":{"lat":-27.634703,"lng":-53.276173},"asciiName":"Jaboticaba"},{"name":"Taquaruçu do Sul","state":"RS","location":{"lat":-27.400452,"lng":-53.47025},"asciiName":"Taquarucu do Sul"},{"name":"Seberi","state":"RS","location":{"lat":-27.482861,"lng":-53.402634},"asciiName":"Seberi"},{"name":"Caiçara","state":"RS","location":{"lat":-27.279121,"lng":-53.42567},"asciiName":"Caicara"},{"name":"Frederico Westphalen","state":"RS","location":{"lat":-27.358644,"lng":-53.395824},"asciiName":"Frederico Westphalen"},{"name":"Cristal do Sul","state":"RS","location":{"lat":-27.451995,"lng":-53.242227},"asciiName":"Cristal do Sul"},{"name":"Lajeado do Bugre","state":"RS","location":{"lat":-27.69131,"lng":-53.181811},"asciiName":"Lajeado do Bugre"},{"name":"São José das Missões","state":"RS","location":{"lat":-27.778908,"lng":-53.122595},"asciiName":"Sao Jose das Missoes"},{"name":"Sagrada Família","state":"RS","location":{"lat":-27.708538,"lng":-53.135053},"asciiName":"Sagrada Familia"},{"name":"Cerro Grande","state":"RS","location":{"lat":-27.610621,"lng":-53.167233},"asciiName":"Cerro Grande"},{"name":"Novo Tiradentes","state":"RS","location":{"lat":-27.564918,"lng":-53.183715},"asciiName":"Novo Tiradentes"},{"name":"Constantina","state":"RS","location":{"lat":-27.731974,"lng":-52.993799},"asciiName":"Constantina"},{"name":"Liberato Salzano","state":"RS","location":{"lat":-27.600959,"lng":-53.07533},"asciiName":"Liberato Salzano"},{"name":"Centenário","state":"RS","location":{"lat":-27.761547,"lng":-51.998408},"asciiName":"Centenario"},{"name":"Carlos Gomes","state":"RS","location":{"lat":-27.716679,"lng":-51.912127},"asciiName":"Carlos Gomes"},{"name":"Viadutos","state":"RS","location":{"lat":-27.571566,"lng":-52.021144},"asciiName":"Viadutos"},{"name":"Três Arroios","state":"RS","location":{"lat":-27.500273,"lng":-52.144753},"asciiName":"Tres Arroios"},{"name":"Severiano de Almeida","state":"RS","location":{"lat":-27.436202,"lng":-52.121704},"asciiName":"Severiano de Almeida"},{"name":"Mariano Moro","state":"RS","location":{"lat":-27.356753,"lng":-52.146661},"asciiName":"Mariano Moro"},{"name":"Marcelino Ramos","state":"RS","location":{"lat":-27.467622,"lng":-51.909503},"asciiName":"Marcelino Ramos"},{"name":"Ibiaçá","state":"RS","location":{"lat":-28.056556,"lng":-51.859851},"asciiName":"Ibiaca"},{"name":"Caseiros","state":"RS","location":{"lat":-28.25816,"lng":-51.686108},"asciiName":"Caseiros"},{"name":"Sananduva","state":"RS","location":{"lat":-27.947028,"lng":-51.807949},"asciiName":"Sananduva"},{"name":"São João da Urtiga","state":"RS","location":{"lat":-27.819507,"lng":-51.825664},"asciiName":"Sao Joao da Urtiga"},{"name":"Santo Expedito do Sul","state":"RS","location":{"lat":-27.907439,"lng":-51.643352},"asciiName":"Santo Expedito do Sul"},{"name":"Lagoa Vermelha","state":"RS","location":{"lat":-28.209335,"lng":-51.524815},"asciiName":"Lagoa Vermelha"},{"name":"Rolante","state":"RS","location":{"lat":-29.64624,"lng":-50.581937},"asciiName":"Rolante"},{"name":"Caraá","state":"RS","location":{"lat":-29.786933,"lng":-50.431614},"asciiName":"Caraa"},{"name":"Riozinho","state":"RS","location":{"lat":-29.638986,"lng":-50.448781},"asciiName":"Riozinho"},{"name":"São Francisco de Paula","state":"RS","location":{"lat":-29.440366,"lng":-50.582796},"asciiName":"Sao Francisco de Paula"},{"name":"Jari","state":"RS","location":{"lat":-29.292234,"lng":-54.223711},"asciiName":"Jari"},{"name":"Quevedos","state":"RS","location":{"lat":-29.350413,"lng":-54.078915},"asciiName":"Quevedos"},{"name":"Vitória das Missões","state":"RS","location":{"lat":-28.351612,"lng":-54.504022},"asciiName":"Vitoria das Missoes"},{"name":"Entre-Ijuís","state":"RS","location":{"lat":-28.368556,"lng":-54.268588},"asciiName":"Entre-Ijuis"},{"name":"Jóia","state":"RS","location":{"lat":-28.643484,"lng":-54.114131},"asciiName":"Joia"},{"name":"Eugênio de Castro","state":"RS","location":{"lat":-28.531467,"lng":-54.15059},"asciiName":"Eugenio de Castro"},{"name":"Coronel Barros","state":"RS","location":{"lat":-28.392148,"lng":-54.068621},"asciiName":"Coronel Barros"},{"name":"Dois Vizinhos","state":"PR","location":{"lat":-25.740694,"lng":-53.057016},"asciiName":"Dois Vizinhos"},{"name":"Nova Prata do Iguaçu","state":"PR","location":{"lat":-25.630908,"lng":-53.346862},"asciiName":"Nova Prata do Iguacu"},{"name":"Boa Vista da Aparecida","state":"PR","location":{"lat":-25.430755,"lng":-53.411694},"asciiName":"Boa Vista da Aparecida"},{"name":"Boa Esperança do Iguaçu","state":"PR","location":{"lat":-25.632435,"lng":-53.210818},"asciiName":"Boa Esperanca do Iguacu"},{"name":"Cruzeiro do Iguaçu","state":"PR","location":{"lat":-25.619214,"lng":-53.128484},"asciiName":"Cruzeiro do Iguacu"},{"name":"Três Barras do Paraná","state":"PR","location":{"lat":-25.418517,"lng":-53.18335},"asciiName":"Tres Barras do Parana"},{"name":"Catanduvas","state":"PR","location":{"lat":-25.204356,"lng":-53.154826},"asciiName":"Catanduvas"},{"name":"Bom Sucesso do Sul","state":"PR","location":{"lat":-26.073113,"lng":-52.835297},"asciiName":"Bom Sucesso do Sul"},{"name":"Itapejara d'Oeste","state":"PR","location":{"lat":-25.96203,"lng":-52.813823},"asciiName":"Itapejara d'Oeste"},{"name":"Verê","state":"PR","location":{"lat":-25.877201,"lng":-52.905108},"asciiName":"Vere"},{"name":"São Jorge d'Oeste","state":"PR","location":{"lat":-25.699002,"lng":-52.913092},"asciiName":"Sao Jorge d'Oeste"},{"name":"São João","state":"PR","location":{"lat":-25.821375,"lng":-52.72524},"asciiName":"Sao Joao"},{"name":"Sulina","state":"PR","location":{"lat":-25.706553,"lng":-52.729869},"asciiName":"Sulina"},{"name":"Coronel Vivida","state":"PR","location":{"lat":-25.976686,"lng":-52.564054},"asciiName":"Coronel Vivida"},{"name":"Saudade do Iguaçu","state":"PR","location":{"lat":-25.691686,"lng":-52.618391},"asciiName":"Saudade do Iguacu"},{"name":"Chopinzinho","state":"PR","location":{"lat":-25.851546,"lng":-52.517293},"asciiName":"Chopinzinho"},{"name":"Quedas do Iguaçu","state":"PR","location":{"lat":-25.449161,"lng":-52.910231},"asciiName":"Quedas do Iguacu"},{"name":"Espigão Alto do Iguaçu","state":"PR","location":{"lat":-25.421635,"lng":-52.834798},"asciiName":"Espigao Alto do Iguacu"},{"name":"Rio Bonito do Iguaçu","state":"PR","location":{"lat":-25.487384,"lng":-52.529206},"asciiName":"Rio Bonito do Iguacu"},{"name":"Nova Laranjeiras","state":"PR","location":{"lat":-25.305376,"lng":-52.544682},"asciiName":"Nova Laranjeiras"},{"name":"Boqueirão do Leão","state":"RS","location":{"lat":-29.30462,"lng":-52.428432},"asciiName":"Boqueirao do Leao"},{"name":"Progresso","state":"RS","location":{"lat":-29.244147,"lng":-52.319721},"asciiName":"Progresso"},{"name":"Caçador","state":"SC","location":{"lat":-26.77567,"lng":-51.012004},"asciiName":"Cacador"},{"name":"General Carneiro","state":"PR","location":{"lat":-26.424974,"lng":-51.317224},"asciiName":"General Carneiro"},{"name":"Matos Costa","state":"SC","location":{"lat":-26.47087,"lng":-51.150095},"asciiName":"Matos Costa"},{"name":"Calmon","state":"SC","location":{"lat":-26.594241,"lng":-51.095017},"asciiName":"Calmon"},{"name":"União da Vitória","state":"PR","location":{"lat":-26.227319,"lng":-51.087313},"asciiName":"Uniao da Vitoria"},{"name":"Porto União","state":"SC","location":{"lat":-26.245075,"lng":-51.075858},"asciiName":"Porto Uniao"},{"name":"Frei Rogério","state":"SC","location":{"lat":-27.175021,"lng":-50.807621},"asciiName":"Frei Rogerio"},{"name":"Lebon Régis","state":"SC","location":{"lat":-26.927987,"lng":-50.692109},"asciiName":"Lebon Regis"},{"name":"Ponte Alta do Norte","state":"SC","location":{"lat":-27.159112,"lng":-50.465947},"asciiName":"Ponte Alta do Norte"},{"name":"Santa Cecília","state":"SC","location":{"lat":-26.959182,"lng":-50.42517},"asciiName":"Santa Cecilia"},{"name":"Timbó Grande","state":"SC","location":{"lat":-26.612671,"lng":-50.66072},"asciiName":"Timbo Grande"},{"name":"Nioaque","state":"MS","location":{"lat":-21.141882,"lng":-55.829618},"asciiName":"Nioaque"},{"name":"Laguna Carapã","state":"MS","location":{"lat":-22.544818,"lng":-55.15021},"asciiName":"Laguna Carapa"},{"name":"Caarapó","state":"MS","location":{"lat":-22.636764,"lng":-54.820928},"asciiName":"Caarapo"},{"name":"Juti","state":"MS","location":{"lat":-22.859637,"lng":-54.60612},"asciiName":"Juti"},{"name":"Dourados","state":"MS","location":{"lat":-22.223099,"lng":-54.812043},"asciiName":"Dourados"},{"name":"Itaporã","state":"MS","location":{"lat":-22.080035,"lng":-54.793381},"asciiName":"Itapora"},{"name":"Douradina","state":"MS","location":{"lat":-22.040494,"lng":-54.615756},"asciiName":"Douradina"},{"name":"Maracaju","state":"MS","location":{"lat":-21.610544,"lng":-55.167763},"asciiName":"Maracaju"},{"name":"Rio Brilhante","state":"MS","location":{"lat":-21.803258,"lng":-54.542744},"asciiName":"Rio Brilhante"},{"name":"Bodoquena","state":"MS","location":{"lat":-20.536983,"lng":-56.712716},"asciiName":"Bodoquena"},{"name":"Corumbá","state":"MS","location":{"lat":-19.007727,"lng":-57.651036},"asciiName":"Corumba"},{"name":"Ladário","state":"MS","location":{"lat":-19.008894,"lng":-57.597266},"asciiName":"Ladario"},{"name":"Miranda","state":"MS","location":{"lat":-20.235508,"lng":-56.374594},"asciiName":"Miranda"},{"name":"Anastácio","state":"MS","location":{"lat":-20.482292,"lng":-55.810353},"asciiName":"Anastacio"},{"name":"Aquidauana","state":"MS","location":{"lat":-20.466552,"lng":-55.786788},"asciiName":"Aquidauana"},{"name":"Dois Irmãos do Buriti","state":"MS","location":{"lat":-20.684818,"lng":-55.291453},"asciiName":"Dois Irmaos do Buriti"},{"name":"Sidrolândia","state":"MS","location":{"lat":-20.930212,"lng":-54.969219},"asciiName":"Sidrolandia"},{"name":"Terenos","state":"MS","location":{"lat":-20.437845,"lng":-54.864742},"asciiName":"Terenos"},{"name":"Rochedo","state":"MS","location":{"lat":-19.956488,"lng":-54.884769},"asciiName":"Rochedo"},{"name":"Corguinho","state":"MS","location":{"lat":-19.824281,"lng":-54.828074},"asciiName":"Corguinho"},{"name":"Rio Negro","state":"MS","location":{"lat":-19.447036,"lng":-54.985873},"asciiName":"Rio Negro"},{"name":"Rio Verde de Mato Grosso","state":"MS","location":{"lat":-18.924945,"lng":-54.843357},"asciiName":"Rio Verde de Mato Grosso"},{"name":"São Gabriel do Oeste","state":"MS","location":{"lat":-19.388858,"lng":-54.550668},"asciiName":"Sao Gabriel do Oeste"},{"name":"Tupanci do Sul","state":"RS","location":{"lat":-27.924085,"lng":-51.538283},"asciiName":"Tupanci do Sul"},{"name":"Maximiliano de Almeida","state":"RS","location":{"lat":-27.632518,"lng":-51.802049},"asciiName":"Maximiliano de Almeida"},{"name":"Paim Filho","state":"RS","location":{"lat":-27.707516,"lng":-51.762988},"asciiName":"Paim Filho"},{"name":"Cacique Doble","state":"RS","location":{"lat":-27.767044,"lng":-51.659671},"asciiName":"Cacique Doble"},{"name":"Machadinho","state":"RS","location":{"lat":-27.566669,"lng":-51.666805},"asciiName":"Machadinho"},{"name":"Alto Bela Vista","state":"SC","location":{"lat":-27.433346,"lng":-51.904435},"asciiName":"Alto Bela Vista"},{"name":"Ipira","state":"SC","location":{"lat":-27.403818,"lng":-51.77579},"asciiName":"Ipira"},{"name":"Peritiba","state":"SC","location":{"lat":-27.375449,"lng":-51.901793},"asciiName":"Peritiba"},{"name":"Piratuba","state":"SC","location":{"lat":-27.424228,"lng":-51.766834},"asciiName":"Piratuba"},{"name":"São José do Ouro","state":"RS","location":{"lat":-27.770679,"lng":-51.59662},"asciiName":"Sao Jose do Ouro"},{"name":"Barracão","state":"RS","location":{"lat":-27.673862,"lng":-51.45855},"asciiName":"Barracao"},{"name":"Zortéa","state":"SC","location":{"lat":-27.452065,"lng":-51.551993},"asciiName":"Zortea"},{"name":"Ouro","state":"SC","location":{"lat":-27.337905,"lng":-51.619373},"asciiName":"Ouro"},{"name":"Capinzal","state":"SC","location":{"lat":-27.347295,"lng":-51.605702},"asciiName":"Capinzal"},{"name":"Erval Velho","state":"SC","location":{"lat":-27.274321,"lng":-51.44299},"asciiName":"Erval Velho"},{"name":"Farroupilha","state":"RS","location":{"lat":-29.222689,"lng":-51.341853},"asciiName":"Farroupilha"},{"name":"Caxias do Sul","state":"RS","location":{"lat":-29.162905,"lng":-51.179161},"asciiName":"Caxias do Sul"},{"name":"Presidente Prudente","state":"SP","location":{"lat":-22.120654,"lng":-51.392526},"asciiName":"Presidente Prudente"},{"name":"Bataguassu","state":"MS","location":{"lat":-21.715899,"lng":-52.422058},"asciiName":"Bataguassu"},{"name":"Presidente Epitácio","state":"SP","location":{"lat":-21.765074,"lng":-52.11114},"asciiName":"Presidente Epitacio"},{"name":"Caiuá","state":"SP","location":{"lat":-21.832164,"lng":-51.996918},"asciiName":"Caiua"},{"name":"Junqueirópolis","state":"SP","location":{"lat":-21.510348,"lng":-51.434187},"asciiName":"Junqueiropolis"},{"name":"Panorama","state":"SP","location":{"lat":-21.353973,"lng":-51.856185},"asciiName":"Panorama"},{"name":"Paulicéia","state":"SP","location":{"lat":-21.315262,"lng":-51.832098},"asciiName":"Pauliceia"},{"name":"Ouro Verde","state":"SP","location":{"lat":-21.48715,"lng":-51.702398},"asciiName":"Ouro Verde"},{"name":"Santa Mercedes","state":"SP","location":{"lat":-21.349521,"lng":-51.756353},"asciiName":"Santa Mercedes"},{"name":"Nova Guataporanga","state":"SP","location":{"lat":-21.331968,"lng":-51.644655},"asciiName":"Nova Guataporanga"},{"name":"Paraíso do Sul","state":"RS","location":{"lat":-29.671705,"lng":-53.144034},"asciiName":"Paraiso do Sul"},{"name":"Ibarama","state":"RS","location":{"lat":-29.420321,"lng":-53.129493},"asciiName":"Ibarama"},{"name":"Sobradinho","state":"RS","location":{"lat":-29.419439,"lng":-53.032625},"asciiName":"Sobradinho"},{"name":"Passa Sete","state":"RS","location":{"lat":-29.457667,"lng":-52.959945},"asciiName":"Passa Sete"},{"name":"Cachoeira do Sul","state":"RS","location":{"lat":-30.032988,"lng":-52.892756},"asciiName":"Cachoeira do Sul"},{"name":"Novo Cabrais","state":"RS","location":{"lat":-29.733752,"lng":-52.94894},"asciiName":"Novo Cabrais"},{"name":"Cerro Branco","state":"RS","location":{"lat":-29.656986,"lng":-52.94061},"asciiName":"Cerro Branco"},{"name":"Candelária","state":"RS","location":{"lat":-29.668391,"lng":-52.789495},"asciiName":"Candelaria"},{"name":"Vera Cruz","state":"RS","location":{"lat":-29.718435,"lng":-52.515176},"asciiName":"Vera Cruz"},{"name":"Santa Cruz do Sul","state":"RS","location":{"lat":-29.722021,"lng":-52.434318},"asciiName":"Santa Cruz do Sul"},{"name":"Vale do Sol","state":"RS","location":{"lat":-29.596724,"lng":-52.683901},"asciiName":"Vale do Sol"},{"name":"Herveiras","state":"RS","location":{"lat":-29.455239,"lng":-52.655314},"asciiName":"Herveiras"},{"name":"Sinimbu","state":"RS","location":{"lat":-29.535659,"lng":-52.530449},"asciiName":"Sinimbu"},{"name":"Rio Grande","state":"RS","location":{"lat":-32.034875,"lng":-52.10705},"asciiName":"Rio Grande"},{"name":"São José do Norte","state":"RS","location":{"lat":-32.015129,"lng":-52.033085},"asciiName":"Sao Jose do Norte"},{"name":"Pelotas","state":"RS","location":{"lat":-31.764898,"lng":-52.337058},"asciiName":"Pelotas"},{"name":"Turuçu","state":"RS","location":{"lat":-31.417284,"lng":-52.17059},"asciiName":"Turucu"},{"name":"São Lourenço do Sul","state":"RS","location":{"lat":-31.356374,"lng":-51.971531},"asciiName":"Sao Lourenco do Sul"},{"name":"Cristal","state":"RS","location":{"lat":-31.004634,"lng":-52.043618},"asciiName":"Cristal"},{"name":"Amaral Ferrador","state":"RS","location":{"lat":-30.875579,"lng":-52.250951},"asciiName":"Amaral Ferrador"},{"name":"Camaquã","state":"RS","location":{"lat":-30.848897,"lng":-51.80431},"asciiName":"Camaqua"},{"name":"Saldanha Marinho","state":"RS","location":{"lat":-28.394081,"lng":-53.097006},"asciiName":"Saldanha Marinho"},{"name":"Colorado","state":"RS","location":{"lat":-28.525842,"lng":-52.99282},"asciiName":"Colorado"},{"name":"Lagoão","state":"RS","location":{"lat":-29.234796,"lng":-52.799698},"asciiName":"Lagoao"},{"name":"Palma Sola","state":"SC","location":{"lat":-26.347069,"lng":-53.277091},"asciiName":"Palma Sola"},{"name":"Flor da Serra do Sul","state":"PR","location":{"lat":-26.252326,"lng":-53.309213},"asciiName":"Flor da Serra do Sul"},{"name":"Tigrinhos","state":"SC","location":{"lat":-26.68761,"lng":-53.154529},"asciiName":"Tigrinhos"},{"name":"Santa Terezinha do Progresso","state":"SC","location":{"lat":-26.62403,"lng":-53.199716},"asciiName":"Santa Terezinha do Progresso"},{"name":"Bom Jesus do Oeste","state":"SC","location":{"lat":-26.692737,"lng":-53.096725},"asciiName":"Bom Jesus do Oeste"},{"name":"Serra Alta","state":"SC","location":{"lat":-26.722898,"lng":-53.04087},"asciiName":"Serra Alta"},{"name":"Sul Brasil","state":"SC","location":{"lat":-26.735148,"lng":-52.963965},"asciiName":"Sul Brasil"},{"name":"Saltinho","state":"SC","location":{"lat":-26.604932,"lng":-53.057763},"asciiName":"Saltinho"},{"name":"Campo Erê","state":"SC","location":{"lat":-26.393056,"lng":-53.085614},"asciiName":"Campo Ere"},{"name":"Nova Prata","state":"RS","location":{"lat":-28.779913,"lng":-51.611271},"asciiName":"Nova Prata"},{"name":"André da Rocha","state":"RS","location":{"lat":-28.628294,"lng":-51.579729},"asciiName":"Andre da Rocha"},{"name":"Protásio Alves","state":"RS","location":{"lat":-28.757189,"lng":-51.4757},"asciiName":"Protasio Alves"},{"name":"Ibiraiaras","state":"RS","location":{"lat":-28.374095,"lng":-51.63767},"asciiName":"Ibiraiaras"},{"name":"Santa Mônica","state":"PR","location":{"lat":-23.108005,"lng":-53.110297},"asciiName":"Santa Monica"},{"name":"Tapira","state":"PR","location":{"lat":-23.319343,"lng":-53.068446},"asciiName":"Tapira"},{"name":"Tuneiras do Oeste","state":"PR","location":{"lat":-23.864798,"lng":-52.876874},"asciiName":"Tuneiras do Oeste"},{"name":"Tapejara","state":"PR","location":{"lat":-23.731462,"lng":-52.873487},"asciiName":"Tapejara"},{"name":"Farol","state":"PR","location":{"lat":-24.095842,"lng":-52.621693},"asciiName":"Farol"},{"name":"Cerro Grande do Sul","state":"RS","location":{"lat":-30.590472,"lng":-51.741846},"asciiName":"Cerro Grande do Sul"},{"name":"Arambaré","state":"RS","location":{"lat":-30.909248,"lng":-51.504586},"asciiName":"Arambare"},{"name":"Sentinela do Sul","state":"RS","location":{"lat":-30.610707,"lng":-51.586154},"asciiName":"Sentinela do Sul"},{"name":"Sertão Santana","state":"RS","location":{"lat":-30.456183,"lng":-51.601694},"asciiName":"Sertao Santana"},{"name":"Tapes","state":"RS","location":{"lat":-30.668308,"lng":-51.39914},"asciiName":"Tapes"},{"name":"Pantano Grande","state":"RS","location":{"lat":-30.190155,"lng":-52.372915},"asciiName":"Pantano Grande"},{"name":"Rio Pardo","state":"RS","location":{"lat":-29.98803,"lng":-52.37113},"asciiName":"Rio Pardo"},{"name":"Minas do Leão","state":"RS","location":{"lat":-30.134576,"lng":-52.042257},"asciiName":"Minas do Leao"},{"name":"Butiá","state":"RS","location":{"lat":-30.11792,"lng":-51.960057},"asciiName":"Butia"},{"name":"Vale Verde","state":"RS","location":{"lat":-29.786445,"lng":-52.185747},"asciiName":"Vale Verde"},{"name":"Passo do Sobrado","state":"RS","location":{"lat":-29.748041,"lng":-52.274758},"asciiName":"Passo do Sobrado"},{"name":"Venâncio Aires","state":"RS","location":{"lat":-29.614306,"lng":-52.193159},"asciiName":"Venancio Aires"},{"name":"São Pedro da Serra","state":"RS","location":{"lat":-29.41932,"lng":-51.513381},"asciiName":"Sao Pedro da Serra"},{"name":"Harmonia","state":"RS","location":{"lat":-29.545556,"lng":-51.418502},"asciiName":"Harmonia"},{"name":"Salvador do Sul","state":"RS","location":{"lat":-29.438561,"lng":-51.507699},"asciiName":"Salvador do Sul"},{"name":"Barão","state":"RS","location":{"lat":-29.372474,"lng":-51.494908},"asciiName":"Barao"},{"name":"Tupandi","state":"RS","location":{"lat":-29.477185,"lng":-51.417358},"asciiName":"Tupandi"},{"name":"Tavares","state":"RS","location":{"lat":-31.284266,"lng":-51.08804},"asciiName":"Tavares"},{"name":"Mostardas","state":"RS","location":{"lat":-31.10538,"lng":-50.916692},"asciiName":"Mostardas"},{"name":"Barra do Ribeiro","state":"RS","location":{"lat":-30.293884,"lng":-51.301358},"asciiName":"Barra do Ribeiro"},{"name":"Guaíba","state":"RS","location":{"lat":-30.108592,"lng":-51.323314},"asciiName":"Guaiba"},{"name":"Canoas","state":"RS","location":{"lat":-29.912758,"lng":-51.185681},"asciiName":"Canoas"},{"name":"Viamão","state":"RS","location":{"lat":-30.081899,"lng":-51.019435},"asciiName":"Viamao"},{"name":"Alvorada","state":"RS","location":{"lat":-29.9914,"lng":-51.080857},"asciiName":"Alvorada"},{"name":"Cachoeirinha","state":"RS","location":{"lat":-29.947222,"lng":-51.101606},"asciiName":"Cachoeirinha"},{"name":"Gravataí","state":"RS","location":{"lat":-29.941319,"lng":-50.986891},"asciiName":"Gravatai"},{"name":"Nova Santa Rita","state":"RS","location":{"lat":-29.852474,"lng":-51.283736},"asciiName":"Nova Santa Rita"},{"name":"Capela de Santana","state":"RS","location":{"lat":-29.696088,"lng":-51.327998},"asciiName":"Capela de Santana"},{"name":"Esteio","state":"RS","location":{"lat":-29.851963,"lng":-51.184065},"asciiName":"Esteio"},{"name":"Sapucaia do Sul","state":"RS","location":{"lat":-29.827575,"lng":-51.144975},"asciiName":"Sapucaia do Sul"},{"name":"São Leopoldo","state":"RS","location":{"lat":-29.754494,"lng":-51.149773},"asciiName":"Sao Leopoldo"},{"name":"Portão","state":"RS","location":{"lat":-29.701533,"lng":-51.242895},"asciiName":"Portao"},{"name":"Estância Velha","state":"RS","location":{"lat":-29.65354,"lng":-51.184339},"asciiName":"Estancia Velha"},{"name":"Novo Hamburgo","state":"RS","location":{"lat":-29.687548,"lng":-51.132828},"asciiName":"Novo Hamburgo"},{"name":"São Sebastião do Caí","state":"RS","location":{"lat":-29.588517,"lng":-51.37488},"asciiName":"Sao Sebastiao do Cai"},{"name":"Bom Princípio","state":"RS","location":{"lat":-29.485634,"lng":-51.354763},"asciiName":"Bom Principio"},{"name":"São Vendelino","state":"RS","location":{"lat":-29.372873,"lng":-51.367515},"asciiName":"Sao Vendelino"},{"name":"Feliz","state":"RS","location":{"lat":-29.452703,"lng":-51.303186},"asciiName":"Feliz"},{"name":"Alto Feliz","state":"RS","location":{"lat":-29.391928,"lng":-51.312278},"asciiName":"Alto Feliz"},{"name":"Vale Real","state":"RS","location":{"lat":-29.391944,"lng":-51.255859},"asciiName":"Vale Real"},{"name":"Lindolfo Collor","state":"RS","location":{"lat":-29.585906,"lng":-51.214112},"asciiName":"Lindolfo Collor"},{"name":"São José do Hortêncio","state":"RS","location":{"lat":-29.527962,"lng":-51.245048},"asciiName":"Sao Jose do Hortencio"},{"name":"Ivoti","state":"RS","location":{"lat":-29.599463,"lng":-51.153326},"asciiName":"Ivoti"},{"name":"Presidente Lucena","state":"RS","location":{"lat":-29.517549,"lng":-51.179798},"asciiName":"Presidente Lucena"},{"name":"Linha Nova","state":"RS","location":{"lat":-29.467929,"lng":-51.200297},"asciiName":"Linha Nova"},{"name":"Picada Café","state":"RS","location":{"lat":-29.446421,"lng":-51.136725},"asciiName":"Picada Cafe"},{"name":"Campo Bom","state":"RS","location":{"lat":-29.674694,"lng":-51.060601},"asciiName":"Campo Bom"},{"name":"Sapiranga","state":"RS","location":{"lat":-29.634885,"lng":-51.006446},"asciiName":"Sapiranga"},{"name":"Dois Irmãos","state":"RS","location":{"lat":-29.58356,"lng":-51.089776},"asciiName":"Dois Irmaos"},{"name":"Morro Reuter","state":"RS","location":{"lat":-29.537934,"lng":-51.081119},"asciiName":"Morro Reuter"},{"name":"Nova Petrópolis","state":"RS","location":{"lat":-29.374112,"lng":-51.113552},"asciiName":"Nova Petropolis"},{"name":"Santa Maria do Herval","state":"RS","location":{"lat":-29.490163,"lng":-50.991917},"asciiName":"Santa Maria do Herval"},{"name":"Araricá","state":"RS","location":{"lat":-29.616832,"lng":-50.929128},"asciiName":"Ararica"},{"name":"Nova Hartz","state":"RS","location":{"lat":-29.580752,"lng":-50.905108},"asciiName":"Nova Hartz"},{"name":"Gramado","state":"RS","location":{"lat":-29.373351,"lng":-50.876164},"asciiName":"Gramado"},{"name":"Palmares do Sul","state":"RS","location":{"lat":-30.253485,"lng":-50.510297},"asciiName":"Palmares do Sul"},{"name":"Capivari do Sul","state":"RS","location":{"lat":-30.138251,"lng":-50.515152},"asciiName":"Capivari do Sul"},{"name":"Glorinha","state":"RS","location":{"lat":-29.879798,"lng":-50.773363},"asciiName":"Glorinha"},{"name":"Parobé","state":"RS","location":{"lat":-29.624257,"lng":-50.83118},"asciiName":"Parobe"},{"name":"Taquara","state":"RS","location":{"lat":-29.650471,"lng":-50.775278},"asciiName":"Taquara"},{"name":"Igrejinha","state":"RS","location":{"lat":-29.569318,"lng":-50.791894},"asciiName":"Igrejinha"},{"name":"Três Coroas","state":"RS","location":{"lat":-29.513719,"lng":-50.773869},"asciiName":"Tres Coroas"},{"name":"Santo Antônio da Patrulha","state":"RS","location":{"lat":-29.826768,"lng":-50.517489},"asciiName":"Santo Antonio da Patrulha"},{"name":"Tupanciretã","state":"RS","location":{"lat":-29.085775,"lng":-53.844469},"asciiName":"Tupancireta"},{"name":"Júlio de Castilhos","state":"RS","location":{"lat":-29.229855,"lng":-53.677168},"asciiName":"Julio de Castilhos"},{"name":"Augusto Pestana","state":"RS","location":{"lat":-28.517249,"lng":-53.988292},"asciiName":"Augusto Pestana"},{"name":"Ijuí","state":"RS","location":{"lat":-28.388048,"lng":-53.91996},"asciiName":"Ijui"},{"name":"Cruz Alta","state":"RS","location":{"lat":-28.645001,"lng":-53.604831},"asciiName":"Cruz Alta"},{"name":"Pejuçara","state":"RS","location":{"lat":-28.428256,"lng":-53.657854},"asciiName":"Pejucara"},{"name":"Sete de Setembro","state":"RS","location":{"lat":-28.136169,"lng":-54.463682},"asciiName":"Sete de Setembro"},{"name":"Santo Ângelo","state":"RS","location":{"lat":-28.300128,"lng":-54.266781},"asciiName":"Santo Angelo"},{"name":"Santa Rosa","state":"RS","location":{"lat":-27.8702,"lng":-54.479629},"asciiName":"Santa Rosa"},{"name":"Giruá","state":"RS","location":{"lat":-28.029664,"lng":-54.35168},"asciiName":"Girua"},{"name":"Catuípe","state":"RS","location":{"lat":-28.255356,"lng":-54.013215},"asciiName":"Catuipe"},{"name":"Independência","state":"RS","location":{"lat":-27.835411,"lng":-54.18864},"asciiName":"Independencia"},{"name":"Inhacorá","state":"RS","location":{"lat":-27.875187,"lng":-54.014978},"asciiName":"Inhacora"},{"name":"Alegria","state":"RS","location":{"lat":-27.834467,"lng":-54.055732},"asciiName":"Alegria"},{"name":"Tuparendi","state":"RS","location":{"lat":-27.759768,"lng":-54.481434},"asciiName":"Tuparendi"},{"name":"Tucunduva","state":"RS","location":{"lat":-27.657292,"lng":-54.44388},"asciiName":"Tucunduva"},{"name":"Novo Machado","state":"RS","location":{"lat":-27.576473,"lng":-54.503592},"asciiName":"Novo Machado"},{"name":"Horizontina","state":"RS","location":{"lat":-27.628238,"lng":-54.305336},"asciiName":"Horizontina"},{"name":"Doutor Maurício Cardoso","state":"RS","location":{"lat":-27.510309,"lng":-54.357746},"asciiName":"Doutor Mauricio Cardoso"},{"name":"Três de Maio","state":"RS","location":{"lat":-27.780037,"lng":-54.235709},"asciiName":"Tres de Maio"},{"name":"São José do Inhacorá","state":"RS","location":{"lat":-27.725055,"lng":-54.127462},"asciiName":"Sao Jose do Inhacora"},{"name":"Boa Vista do Buricá","state":"RS","location":{"lat":-27.66928,"lng":-54.108229},"asciiName":"Boa Vista do Burica"},{"name":"Nova Candelária","state":"RS","location":{"lat":-27.613677,"lng":-54.107401},"asciiName":"Nova Candelaria"},{"name":"Crissiumal","state":"RS","location":{"lat":-27.49989,"lng":-54.099372},"asciiName":"Crissiumal"},{"name":"Tiradentes do Sul","state":"RS","location":{"lat":-27.402229,"lng":-54.081367},"asciiName":"Tiradentes do Sul"},{"name":"Ajuricaba","state":"RS","location":{"lat":-28.23417,"lng":-53.775668},"asciiName":"Ajuricaba"},{"name":"Chiapetta","state":"RS","location":{"lat":-27.923017,"lng":-53.941871},"asciiName":"Chiapetta"},{"name":"São Valério do Sul","state":"RS","location":{"lat":-27.790639,"lng":-53.936771},"asciiName":"Sao Valerio do Sul"},{"name":"Santo Augusto","state":"RS","location":{"lat":-27.852577,"lng":-53.777605},"asciiName":"Santo Augusto"},{"name":"Nova Ramada","state":"RS","location":{"lat":-28.066731,"lng":-53.699168},"asciiName":"Nova Ramada"},{"name":"Panambi","state":"RS","location":{"lat":-28.283328,"lng":-53.502261},"asciiName":"Panambi"},{"name":"Condor","state":"RS","location":{"lat":-28.207533,"lng":-53.490545},"asciiName":"Condor"},{"name":"São Martinho","state":"RS","location":{"lat":-27.711169,"lng":-53.969899},"asciiName":"Sao Martinho"},{"name":"Sede Nova","state":"RS","location":{"lat":-27.636739,"lng":-53.94929},"asciiName":"Sede Nova"},{"name":"Humaitá","state":"RS","location":{"lat":-27.569065,"lng":-53.969525},"asciiName":"Humaita"},{"name":"Bom Progresso","state":"RS","location":{"lat":-27.539856,"lng":-53.871608},"asciiName":"Bom Progresso"},{"name":"Campo Novo","state":"RS","location":{"lat":-27.6792,"lng":-53.805209},"asciiName":"Campo Novo"},{"name":"Braga","state":"RS","location":{"lat":-27.617348,"lng":-53.740514},"asciiName":"Braga"},{"name":"Três Passos","state":"RS","location":{"lat":-27.455471,"lng":-53.929631},"asciiName":"Tres Passos"},{"name":"Esperança do Sul","state":"RS","location":{"lat":-27.360276,"lng":-53.989081},"asciiName":"Esperanca do Sul"},{"name":"Derrubadas","state":"RS","location":{"lat":-27.264151,"lng":-53.864535},"asciiName":"Derrubadas"},{"name":"Tenente Portela","state":"RS","location":{"lat":-27.371058,"lng":-53.758484},"asciiName":"Tenente Portela"},{"name":"Coronel Bicaco","state":"RS","location":{"lat":-27.719699,"lng":-53.702164},"asciiName":"Coronel Bicaco"},{"name":"Redentora","state":"RS","location":{"lat":-27.663954,"lng":-53.640668},"asciiName":"Redentora"},{"name":"Dois Irmãos das Missões","state":"RS","location":{"lat":-27.662103,"lng":-53.530413},"asciiName":"Dois Irmaos das Missoes"},{"name":"Erval Seco","state":"RS","location":{"lat":-27.544314,"lng":-53.500501},"asciiName":"Erval Seco"},{"name":"Miraguaí","state":"RS","location":{"lat":-27.49697,"lng":-53.689078},"asciiName":"Miraguai"},{"name":"Vista Gaúcha","state":"RS","location":{"lat":-27.290217,"lng":-53.697382},"asciiName":"Vista Gaucha"},{"name":"Palmitinho","state":"RS","location":{"lat":-27.359574,"lng":-53.558029},"asciiName":"Palmitinho"},{"name":"Vista Alegre","state":"RS","location":{"lat":-27.368619,"lng":-53.491876},"asciiName":"Vista Alegre"},{"name":"Pinhal Grande","state":"RS","location":{"lat":-29.345,"lng":-53.320649},"asciiName":"Pinhal Grande"},{"name":"Arroio do Tigre","state":"RS","location":{"lat":-29.334829,"lng":-53.096627},"asciiName":"Arroio do Tigre"},{"name":"Estrela Velha","state":"RS","location":{"lat":-29.171269,"lng":-53.16387},"asciiName":"Estrela Velha"},{"name":"Segredo","state":"RS","location":{"lat":-29.352337,"lng":-52.976673},"asciiName":"Segredo"},{"name":"Tunas","state":"RS","location":{"lat":-29.103944,"lng":-52.953843},"asciiName":"Tunas"},{"name":"Salto do Jacuí","state":"RS","location":{"lat":-29.095065,"lng":-53.213326},"asciiName":"Salto do Jacui"},{"name":"Campos Borges","state":"RS","location":{"lat":-28.887148,"lng":-53.000812},"asciiName":"Campos Borges"},{"name":"Fortaleza dos Valos","state":"RS","location":{"lat":-28.798596,"lng":-53.224906},"asciiName":"Fortaleza dos Valos"},{"name":"Santa Bárbara do Sul","state":"RS","location":{"lat":-28.36533,"lng":-53.251041},"asciiName":"Santa Barbara do Sul"},{"name":"Quinze de Novembro","state":"RS","location":{"lat":-28.746552,"lng":-53.101096},"asciiName":"Quinze de Novembro"},{"name":"Ibirubá","state":"RS","location":{"lat":-28.630161,"lng":-53.096124},"asciiName":"Ibiruba"},{"name":"Alto Alegre","state":"RS","location":{"lat":-28.776865,"lng":-52.989255},"asciiName":"Alto Alegre"},{"name":"Gramado Xavier","state":"RS","location":{"lat":-29.270571,"lng":-52.579491},"asciiName":"Gramado Xavier"},{"name":"Barros Cassal","state":"RS","location":{"lat":-29.094686,"lng":-52.583571},"asciiName":"Barros Cassal"},{"name":"Espumoso","state":"RS","location":{"lat":-28.728633,"lng":-52.84608},"asciiName":"Espumoso"},{"name":"Selbach","state":"RS","location":{"lat":-28.629435,"lng":-52.949768},"asciiName":"Selbach"},{"name":"Tapera","state":"RS","location":{"lat":-28.627729,"lng":-52.861253},"asciiName":"Tapera"},{"name":"Mormaço","state":"RS","location":{"lat":-28.696814,"lng":-52.699916},"asciiName":"Mormaco"},{"name":"Lagoa dos Três Cantos","state":"RS","location":{"lat":-28.567611,"lng":-52.861848},"asciiName":"Lagoa dos Tres Cantos"},{"name":"Não-Me-Toque","state":"RS","location":{"lat":-28.454776,"lng":-52.818156},"asciiName":"Nao-Me-Toque"},{"name":"Victor Graeff","state":"RS","location":{"lat":-28.563163,"lng":-52.749535},"asciiName":"Victor Graeff"},{"name":"Santo Antônio do Planalto","state":"RS","location":{"lat":-28.403046,"lng":-52.699233},"asciiName":"Santo Antonio do Planalto"},{"name":"Soledade","state":"RS","location":{"lat":-28.830613,"lng":-52.513083},"asciiName":"Soledade"},{"name":"Ibirapuitã","state":"RS","location":{"lat":-28.624707,"lng":-52.515796},"asciiName":"Ibirapuita"},{"name":"Ernestina","state":"RS","location":{"lat":-28.497674,"lng":-52.583566},"asciiName":"Ernestina"},{"name":"Pinhal","state":"RS","location":{"lat":-27.508022,"lng":-53.208185},"asciiName":"Pinhal"},{"name":"Rodeio Bonito","state":"RS","location":{"lat":-27.474203,"lng":-53.170583},"asciiName":"Rodeio Bonito"},{"name":"Ametista do Sul","state":"RS","location":{"lat":-27.360656,"lng":-53.183005},"asciiName":"Ametista do Sul"},{"name":"Planalto","state":"RS","location":{"lat":-27.329695,"lng":-53.05753},"asciiName":"Planalto"},{"name":"Carazinho","state":"RS","location":{"lat":-28.295844,"lng":-52.79326},"asciiName":"Carazinho"},{"name":"Coqueiros do Sul","state":"RS","location":{"lat":-28.119421,"lng":-52.784221},"asciiName":"Coqueiros do Sul"},{"name":"Sarandi","state":"RS","location":{"lat":-27.942,"lng":-52.923085},"asciiName":"Sarandi"},{"name":"Rondinha","state":"RS","location":{"lat":-27.831451,"lng":-52.908107},"asciiName":"Rondinha"},{"name":"Pontão","state":"RS","location":{"lat":-28.058478,"lng":-52.679091},"asciiName":"Pontao"},{"name":"Engenho Velho","state":"RS","location":{"lat":-27.706026,"lng":-52.91454},"asciiName":"Engenho Velho"},{"name":"Três Palmeiras","state":"RS","location":{"lat":-27.613889,"lng":-52.843718},"asciiName":"Tres Palmeiras"},{"name":"Ronda Alta","state":"RS","location":{"lat":-27.775799,"lng":-52.805587},"asciiName":"Ronda Alta"},{"name":"Entre Rios do Sul","state":"RS","location":{"lat":-27.529836,"lng":-52.734708},"asciiName":"Entre Rios do Sul"},{"name":"Trindade do Sul","state":"RS","location":{"lat":-27.523896,"lng":-52.895593},"asciiName":"Trindade do Sul"},{"name":"Gramado dos Loureiros","state":"RS","location":{"lat":-27.442895,"lng":-52.914861},"asciiName":"Gramado dos Loureiros"},{"name":"Rio dos Índios","state":"RS","location":{"lat":-27.29728,"lng":-52.841749},"asciiName":"Rio dos Indios"},{"name":"Nonoai","state":"RS","location":{"lat":-27.368918,"lng":-52.775564},"asciiName":"Nonoai"},{"name":"Campinas do Sul","state":"RS","location":{"lat":-27.717426,"lng":-52.624808},"asciiName":"Campinas do Sul"},{"name":"Jacutinga","state":"RS","location":{"lat":-27.729135,"lng":-52.53724},"asciiName":"Jacutinga"},{"name":"Ponte Preta","state":"RS","location":{"lat":-27.658692,"lng":-52.484817},"asciiName":"Ponte Preta"},{"name":"São Valentim","state":"RS","location":{"lat":-27.558284,"lng":-52.523714},"asciiName":"Sao Valentim"},{"name":"Faxinalzinho","state":"RS","location":{"lat":-27.42377,"lng":-52.678917},"asciiName":"Faxinalzinho"},{"name":"Benjamin Constant do Sul","state":"RS","location":{"lat":-27.508565,"lng":-52.599504},"asciiName":"Benjamin Constant do Sul"},{"name":"Erval Grande","state":"RS","location":{"lat":-27.392599,"lng":-52.574036},"asciiName":"Erval Grande"},{"name":"Itatiba do Sul","state":"RS","location":{"lat":-27.384631,"lng":-52.453776},"asciiName":"Itatiba do Sul"},{"name":"Barra do Guarita","state":"RS","location":{"lat":-27.192672,"lng":-53.710867},"asciiName":"Barra do Guarita"},{"name":"Itapiranga","state":"SC","location":{"lat":-27.165856,"lng":-53.716603},"asciiName":"Itapiranga"},{"name":"Pinheirinho do Vale","state":"RS","location":{"lat":-27.210886,"lng":-53.608017},"asciiName":"Pinheirinho do Vale"},{"name":"São João do Oeste","state":"SC","location":{"lat":-27.098353,"lng":-53.597657},"asciiName":"Sao Joao do Oeste"},{"name":"Tunápolis","state":"SC","location":{"lat":-26.968103,"lng":-53.641725},"asciiName":"Tunapolis"},{"name":"Santa Helena","state":"SC","location":{"lat":-26.936966,"lng":-53.621439},"asciiName":"Santa Helena"},{"name":"Bandeirante","state":"SC","location":{"lat":-26.770499,"lng":-53.641326},"asciiName":"Bandeirante"},{"name":"Iporã do Oeste","state":"SC","location":{"lat":-26.985396,"lng":-53.535483},"asciiName":"Ipora do Oeste"},{"name":"Belmonte","state":"SC","location":{"lat":-26.842994,"lng":-53.57581},"asciiName":"Belmonte"},{"name":"Descanso","state":"SC","location":{"lat":-26.826971,"lng":-53.503395},"asciiName":"Descanso"},{"name":"Paraíso","state":"SC","location":{"lat":-26.620024,"lng":-53.671595},"asciiName":"Paraiso"},{"name":"São Miguel do Oeste","state":"SC","location":{"lat":-26.724224,"lng":-53.516259},"asciiName":"Sao Miguel do Oeste"},{"name":"Guaraciaba","state":"SC","location":{"lat":-26.604199,"lng":-53.524317},"asciiName":"Guaraciaba"},{"name":"Dionísio Cerqueira","state":"SC","location":{"lat":-26.264784,"lng":-53.635149},"asciiName":"Dionisio Cerqueira"},{"name":"Barracão","state":"PR","location":{"lat":-26.25023,"lng":-53.632385},"asciiName":"Barracao"},{"name":"Princesa","state":"SC","location":{"lat":-26.44412,"lng":-53.599427},"asciiName":"Princesa"},{"name":"São José do Cedro","state":"SC","location":{"lat":-26.456135,"lng":-53.495456},"asciiName":"Sao Jose do Cedro"},{"name":"Guarujá do Sul","state":"SC","location":{"lat":-26.385813,"lng":-53.529575},"asciiName":"Guaruja do Sul"},{"name":"Santa Terezinha de Itaipu","state":"PR","location":{"lat":-25.434417,"lng":-54.400725},"asciiName":"Santa Terezinha de Itaipu"},{"name":"São Miguel do Iguaçu","state":"PR","location":{"lat":-25.349171,"lng":-54.240498},"asciiName":"Sao Miguel do Iguacu"},{"name":"Medianeira","state":"PR","location":{"lat":-25.297665,"lng":-54.094308},"asciiName":"Medianeira"},{"name":"Serranópolis do Iguaçu","state":"PR","location":{"lat":-25.379915,"lng":-54.051822},"asciiName":"Serranopolis do Iguacu"},{"name":"Pranchita","state":"PR","location":{"lat":-26.021968,"lng":-53.741112},"asciiName":"Pranchita"},{"name":"Pérola d'Oeste","state":"PR","location":{"lat":-25.820958,"lng":-53.744742},"asciiName":"Perola d'Oeste"},{"name":"Planalto","state":"PR","location":{"lat":-25.721135,"lng":-53.764234},"asciiName":"Planalto"},{"name":"Santo Antônio do Sudoeste","state":"PR","location":{"lat":-26.073708,"lng":-53.7251},"asciiName":"Santo Antonio do Sudoeste"},{"name":"Bom Jesus do Sul","state":"PR","location":{"lat":-26.195802,"lng":-53.595493},"asciiName":"Bom Jesus do Sul"},{"name":"Pinhal de São Bento","state":"PR","location":{"lat":-26.032422,"lng":-53.481998},"asciiName":"Pinhal de Sao Bento"},{"name":"Bela Vista da Caroba","state":"PR","location":{"lat":-25.884179,"lng":-53.672505},"asciiName":"Bela Vista da Caroba"},{"name":"Santa Izabel do Oeste","state":"PR","location":{"lat":-25.821652,"lng":-53.480146},"asciiName":"Santa Izabel do Oeste"},{"name":"Realeza","state":"PR","location":{"lat":-25.771093,"lng":-53.52603},"asciiName":"Realeza"},{"name":"Capanema","state":"PR","location":{"lat":-25.669099,"lng":-53.805508},"asciiName":"Capanema"},{"name":"Matelândia","state":"PR","location":{"lat":-25.249571,"lng":-53.993492},"asciiName":"Matelandia"},{"name":"Capitão Leônidas Marques","state":"PR","location":{"lat":-25.481645,"lng":-53.611238},"asciiName":"Capitao Leonidas Marques"},{"name":"Santa Lúcia","state":"PR","location":{"lat":-25.410355,"lng":-53.563796},"asciiName":"Santa Lucia"},{"name":"Lindoeste","state":"PR","location":{"lat":-25.259616,"lng":-53.573298},"asciiName":"Lindoeste"},{"name":"Vicente Dutra","state":"RS","location":{"lat":-27.160749,"lng":-53.402211},"asciiName":"Vicente Dutra"},{"name":"Mondaí","state":"SC","location":{"lat":-27.100785,"lng":-53.403177},"asciiName":"Mondai"},{"name":"Iraí","state":"RS","location":{"lat":-27.19507,"lng":-53.254322},"asciiName":"Irai"},{"name":"Riqueza","state":"SC","location":{"lat":-27.065325,"lng":-53.326452},"asciiName":"Riqueza"},{"name":"Caibi","state":"SC","location":{"lat":-27.074102,"lng":-53.245751},"asciiName":"Caibi"},{"name":"Flor do Sertão","state":"SC","location":{"lat":-26.781143,"lng":-53.350522},"asciiName":"Flor do Sertao"},{"name":"Iraceminha","state":"SC","location":{"lat":-26.821536,"lng":-53.276682},"asciiName":"Iraceminha"},{"name":"Palmitos","state":"SC","location":{"lat":-27.070219,"lng":-53.158612},"asciiName":"Palmitos"},{"name":"Alpestre","state":"RS","location":{"lat":-27.250159,"lng":-53.034127},"asciiName":"Alpestre"},{"name":"São Carlos","state":"SC","location":{"lat":-27.079757,"lng":-53.003704},"asciiName":"Sao Carlos"},{"name":"Águas de Chapecó","state":"SC","location":{"lat":-27.075424,"lng":-52.980844},"asciiName":"Aguas de Chapeco"},{"name":"Cunha Porã","state":"SC","location":{"lat":-26.895019,"lng":-53.166185},"asciiName":"Cunha Pora"},{"name":"Cunhataí","state":"SC","location":{"lat":-26.970924,"lng":-53.089474},"asciiName":"Cunhatai"},{"name":"Maravilha","state":"SC","location":{"lat":-26.766529,"lng":-53.173699},"asciiName":"Maravilha"},{"name":"Saudades","state":"SC","location":{"lat":-26.931677,"lng":-53.00213},"asciiName":"Saudades"},{"name":"Modelo","state":"SC","location":{"lat":-26.772924,"lng":-53.039956},"asciiName":"Modelo"},{"name":"Pinhalzinho","state":"SC","location":{"lat":-26.849546,"lng":-52.991268},"asciiName":"Pinhalzinho"},{"name":"Barra Bonita","state":"SC","location":{"lat":-26.654,"lng":-53.44},"asciiName":"Barra Bonita"},{"name":"Romelândia","state":"SC","location":{"lat":-26.680888,"lng":-53.317193},"asciiName":"Romelandia"},{"name":"São Miguel da Boa Vista","state":"SC","location":{"lat":-26.686961,"lng":-53.251107},"asciiName":"Sao Miguel da Boa Vista"},{"name":"Anchieta","state":"SC","location":{"lat":-26.538216,"lng":-53.331908},"asciiName":"Anchieta"},{"name":"São Bernardino","state":"SC","location":{"lat":-26.473926,"lng":-52.968669},"asciiName":"Sao Bernardino"},{"name":"Caxambu do Sul","state":"SC","location":{"lat":-27.162401,"lng":-52.880718},"asciiName":"Caxambu do Sul"},{"name":"Planalto Alegre","state":"SC","location":{"lat":-27.070423,"lng":-52.86699},"asciiName":"Planalto Alegre"},{"name":"Guatambú","state":"SC","location":{"lat":-27.134102,"lng":-52.78865},"asciiName":"Guatambu"},{"name":"Nova Erechim","state":"SC","location":{"lat":-26.898159,"lng":-52.906569},"asciiName":"Nova Erechim"},{"name":"Águas Frias","state":"SC","location":{"lat":-26.879377,"lng":-52.856773},"asciiName":"Aguas Frias"},{"name":"União do Oeste","state":"SC","location":{"lat":-26.76204,"lng":-52.854123},"asciiName":"Uniao do Oeste"},{"name":"Nova Itaberaba","state":"SC","location":{"lat":-26.942805,"lng":-52.814076},"asciiName":"Nova Itaberaba"},{"name":"Coronel Freitas","state":"SC","location":{"lat":-26.905713,"lng":-52.701122},"asciiName":"Coronel Freitas"},{"name":"Chapecó","state":"SC","location":{"lat":-27.100448,"lng":-52.61519},"asciiName":"Chapeco"},{"name":"Paial","state":"SC","location":{"lat":-27.254105,"lng":-52.497517},"asciiName":"Paial"},{"name":"Arvoredo","state":"SC","location":{"lat":-27.074816,"lng":-52.45426},"asciiName":"Arvoredo"},{"name":"Cordilheira Alta","state":"SC","location":{"lat":-26.984403,"lng":-52.605582},"asciiName":"Cordilheira Alta"},{"name":"Marema","state":"SC","location":{"lat":-26.802361,"lng":-52.626445},"asciiName":"Marema"},{"name":"Lajeado Grande","state":"SC","location":{"lat":-26.857614,"lng":-52.564782},"asciiName":"Lajeado Grande"},{"name":"Xaxim","state":"SC","location":{"lat":-26.959643,"lng":-52.537446},"asciiName":"Xaxim"},{"name":"Irati","state":"SC","location":{"lat":-26.653862,"lng":-52.895513},"asciiName":"Irati"},{"name":"Jardinópolis","state":"SC","location":{"lat":-26.719136,"lng":-52.862524},"asciiName":"Jardinopolis"},{"name":"Formosa do Sul","state":"SC","location":{"lat":-26.645272,"lng":-52.794636},"asciiName":"Formosa do Sul"},{"name":"Quilombo","state":"SC","location":{"lat":-26.726432,"lng":-52.72396},"asciiName":"Quilombo"},{"name":"Novo Horizonte","state":"SC","location":{"lat":-26.444218,"lng":-52.828104},"asciiName":"Novo Horizonte"},{"name":"São Lourenço do Oeste","state":"SC","location":{"lat":-26.35566,"lng":-52.849837},"asciiName":"Sao Lourenco do Oeste"},{"name":"Jupiá","state":"SC","location":{"lat":-26.395038,"lng":-52.729766},"asciiName":"Jupia"},{"name":"Vitorino","state":"PR","location":{"lat":-26.268282,"lng":-52.784266},"asciiName":"Vitorino"},{"name":"Santiago do Sul","state":"SC","location":{"lat":-26.638784,"lng":-52.679852},"asciiName":"Santiago do Sul"},{"name":"Coronel Martins","state":"SC","location":{"lat":-26.511043,"lng":-52.669361},"asciiName":"Coronel Martins"},{"name":"Entre Rios","state":"SC","location":{"lat":-26.722474,"lng":-52.558504},"asciiName":"Entre Rios"},{"name":"Ipuaçu","state":"SC","location":{"lat":-26.632025,"lng":-52.456633},"asciiName":"Ipuacu"},{"name":"São Domingos","state":"SC","location":{"lat":-26.554811,"lng":-52.531333},"asciiName":"Sao Domingos"},{"name":"Galvão","state":"SC","location":{"lat":-26.454934,"lng":-52.687528},"asciiName":"Galvao"},{"name":"Pato Branco","state":"PR","location":{"lat":-26.229237,"lng":-52.67063},"asciiName":"Pato Branco"},{"name":"Mariópolis","state":"PR","location":{"lat":-26.351072,"lng":-52.549736},"asciiName":"Mariopolis"},{"name":"Salgado Filho","state":"PR","location":{"lat":-26.177664,"lng":-53.363116},"asciiName":"Salgado Filho"},{"name":"Manfrinópolis","state":"PR","location":{"lat":-26.147968,"lng":-53.315257},"asciiName":"Manfrinopolis"},{"name":"Ampére","state":"PR","location":{"lat":-25.916791,"lng":-53.46864},"asciiName":"Ampere"},{"name":"Nova Esperança do Sudoeste","state":"PR","location":{"lat":-25.90607,"lng":-53.26524},"asciiName":"Nova Esperanca do Sudoeste"},{"name":"Salto do Lontra","state":"PR","location":{"lat":-25.781257,"lng":-53.313528},"asciiName":"Salto do Lontra"},{"name":"Marmeleiro","state":"PR","location":{"lat":-26.1472,"lng":-53.026741},"asciiName":"Marmeleiro"},{"name":"Renascença","state":"PR","location":{"lat":-26.158837,"lng":-52.970349},"asciiName":"Renascenca"},{"name":"Francisco Beltrão","state":"PR","location":{"lat":-26.081677,"lng":-53.053466},"asciiName":"Francisco Beltrao"},{"name":"Enéas Marques","state":"PR","location":{"lat":-25.944525,"lng":-53.16586},"asciiName":"Eneas Marques"},{"name":"Irineópolis","state":"SC","location":{"lat":-26.242006,"lng":-50.795687},"asciiName":"Irineopolis"},{"name":"Bela Vista do Toldo","state":"SC","location":{"lat":-26.274625,"lng":-50.466354},"asciiName":"Bela Vista do Toldo"},{"name":"Cruz Machado","state":"PR","location":{"lat":-26.01664,"lng":-51.342965},"asciiName":"Cruz Machado"},{"name":"Porto Vitória","state":"PR","location":{"lat":-26.167404,"lng":-51.230976},"asciiName":"Porto Vitoria"},{"name":"Paula Freitas","state":"PR","location":{"lat":-26.210513,"lng":-50.930983},"asciiName":"Paula Freitas"},{"name":"Inácio Martins","state":"PR","location":{"lat":-25.570395,"lng":-51.076925},"asciiName":"Inacio Martins"},{"name":"Prudentópolis","state":"PR","location":{"lat":-25.211083,"lng":-50.975396},"asciiName":"Prudentopolis"},{"name":"Paulo Frontin","state":"PR","location":{"lat":-26.046565,"lng":-50.830423},"asciiName":"Paulo Frontin"},{"name":"Mallet","state":"PR","location":{"lat":-25.880588,"lng":-50.817346},"asciiName":"Mallet"},{"name":"Rio Azul","state":"PR","location":{"lat":-25.73058,"lng":-50.798543},"asciiName":"Rio Azul"},{"name":"Canoinhas","state":"SC","location":{"lat":-26.176591,"lng":-50.395001},"asciiName":"Canoinhas"},{"name":"São Mateus do Sul","state":"PR","location":{"lat":-25.867655,"lng":-50.383985},"asciiName":"Sao Mateus do Sul"},{"name":"Rebouças","state":"PR","location":{"lat":-25.623198,"lng":-50.687727},"asciiName":"Reboucas"},{"name":"Irati","state":"PR","location":{"lat":-25.469663,"lng":-50.649287},"asciiName":"Irati"},{"name":"Guamiranga","state":"PR","location":{"lat":-25.191167,"lng":-50.802109},"asciiName":"Guamiranga"},{"name":"Imbituva","state":"PR","location":{"lat":-25.228538,"lng":-50.598856},"asciiName":"Imbituva"},{"name":"Fernandes Pinheiro","state":"PR","location":{"lat":-25.410742,"lng":-50.545601},"asciiName":"Fernandes Pinheiro"},{"name":"Teixeira Soares","state":"PR","location":{"lat":-25.3701,"lng":-50.457072},"asciiName":"Teixeira Soares"},{"name":"Porto Murtinho","state":"MS","location":{"lat":-21.698078,"lng":-57.883586},"asciiName":"Porto Murtinho"},{"name":"Caracol","state":"MS","location":{"lat":-22.011017,"lng":-57.027672},"asciiName":"Caracol"},{"name":"Paranhos","state":"MS","location":{"lat":-23.891067,"lng":-55.429018},"asciiName":"Paranhos"},{"name":"Coronel Sapucaia","state":"MS","location":{"lat":-23.272407,"lng":-55.527811},"asciiName":"Coronel Sapucaia"},{"name":"Amambaí","state":"MS","location":{"lat":-23.10576,"lng":-55.225327},"asciiName":"Amambai"},{"name":"Sete Quedas","state":"MS","location":{"lat":-23.970508,"lng":-55.03984},"asciiName":"Sete Quedas"},{"name":"Tacuru","state":"MS","location":{"lat":-23.635954,"lng":-55.014137},"asciiName":"Tacuru"},{"name":"Iguatemi","state":"MS","location":{"lat":-23.673555,"lng":-54.563731},"asciiName":"Iguatemi"},{"name":"Bela Vista","state":"MS","location":{"lat":-22.107327,"lng":-56.526288},"asciiName":"Bela Vista"},{"name":"Aral Moreira","state":"MS","location":{"lat":-22.938467,"lng":-55.633451},"asciiName":"Aral Moreira"},{"name":"Antônio João","state":"MS","location":{"lat":-22.192701,"lng":-55.951681},"asciiName":"Antonio Joao"},{"name":"Ponta Porã","state":"MS","location":{"lat":-22.529617,"lng":-55.720326},"asciiName":"Ponta Pora"},{"name":"Bonito","state":"MS","location":{"lat":-21.126096,"lng":-56.483565},"asciiName":"Bonito"},{"name":"Jardim","state":"MS","location":{"lat":-21.479941,"lng":-56.148902},"asciiName":"Jardim"},{"name":"Guia Lopes da Laguna","state":"MS","location":{"lat":-21.458318,"lng":-56.111711},"asciiName":"Guia Lopes da Laguna"},{"name":"Pouso Novo","state":"RS","location":{"lat":-29.173793,"lng":-52.213588},"asciiName":"Pouso Novo"},{"name":"Fontoura Xavier","state":"RS","location":{"lat":-28.981655,"lng":-52.344455},"asciiName":"Fontoura Xavier"},{"name":"São José do Herval","state":"RS","location":{"lat":-29.052035,"lng":-52.294991},"asciiName":"Sao Jose do Herval"},{"name":"Arvorezinha","state":"RS","location":{"lat":-28.87369,"lng":-52.17808},"asciiName":"Arvorezinha"},{"name":"Marques de Souza","state":"RS","location":{"lat":-29.331113,"lng":-52.097268},"asciiName":"Marques de Souza"},{"name":"Travesseiro","state":"RS","location":{"lat":-29.297662,"lng":-52.053228},"asciiName":"Travesseiro"},{"name":"Relvado","state":"RS","location":{"lat":-29.116376,"lng":-52.077831},"asciiName":"Relvado"},{"name":"Capitão","state":"RS","location":{"lat":-29.267386,"lng":-51.98528},"asciiName":"Capitao"},{"name":"Nova Bréscia","state":"RS","location":{"lat":-29.218186,"lng":-52.031862},"asciiName":"Nova Brescia"},{"name":"Putinga","state":"RS","location":{"lat":-29.004494,"lng":-52.156904},"asciiName":"Putinga"},{"name":"Ilópolis","state":"RS","location":{"lat":-28.92825,"lng":-52.125816},"asciiName":"Ilopolis"},{"name":"Doutor Ricardo","state":"RS","location":{"lat":-29.083957,"lng":-51.997155},"asciiName":"Doutor Ricardo"},{"name":"Anta Gorda","state":"RS","location":{"lat":-28.969772,"lng":-52.010191},"asciiName":"Anta Gorda"},{"name":"Itapuca","state":"RS","location":{"lat":-28.776844,"lng":-52.169283},"asciiName":"Itapuca"},{"name":"Camargo","state":"RS","location":{"lat":-28.587979,"lng":-52.200263},"asciiName":"Camargo"},{"name":"Marau","state":"RS","location":{"lat":-28.449754,"lng":-52.198625},"asciiName":"Marau"},{"name":"Nova Alvorada","state":"RS","location":{"lat":-28.682231,"lng":-52.16308},"asciiName":"Nova Alvorada"},{"name":"Montauri","state":"RS","location":{"lat":-28.646161,"lng":-52.076728},"asciiName":"Montauri"},{"name":"União da Serra","state":"RS","location":{"lat":-28.783285,"lng":-52.023783},"asciiName":"Uniao da Serra"},{"name":"Serafina Corrêa","state":"RS","location":{"lat":-28.712621,"lng":-51.93525},"asciiName":"Serafina Correa"},{"name":"Vila Maria","state":"RS","location":{"lat":-28.535853,"lng":-52.148648},"asciiName":"Vila Maria"},{"name":"Casca","state":"RS","location":{"lat":-28.560516,"lng":-51.981452},"asciiName":"Casca"},{"name":"Santo Antônio do Palma","state":"RS","location":{"lat":-28.495554,"lng":-52.026701},"asciiName":"Santo Antonio do Palma"},{"name":"Gentil","state":"RS","location":{"lat":-28.431641,"lng":-52.033695},"asciiName":"Gentil"},{"name":"Roca Sales","state":"RS","location":{"lat":-29.288398,"lng":-51.86584},"asciiName":"Roca Sales"},{"name":"Encantado","state":"RS","location":{"lat":-29.235141,"lng":-51.870282},"asciiName":"Encantado"},{"name":"Imigrante","state":"RS","location":{"lat":-29.350776,"lng":-51.774752},"asciiName":"Imigrante"},{"name":"Muçum","state":"RS","location":{"lat":-29.163002,"lng":-51.871367},"asciiName":"Mucum"},{"name":"Boa Vista do Sul","state":"RS","location":{"lat":-29.354406,"lng":-51.668725},"asciiName":"Boa Vista do Sul"},{"name":"Santa Tereza","state":"RS","location":{"lat":-29.165467,"lng":-51.735066},"asciiName":"Santa Tereza"},{"name":"Vespasiano Correa","state":"RS","location":{"lat":-29.065506,"lng":-51.862495},"asciiName":"Vespasiano Correa"},{"name":"Dois Lajeados","state":"RS","location":{"lat":-28.983006,"lng":-51.839584},"asciiName":"Dois Lajeados"},{"name":"Guaporé","state":"RS","location":{"lat":-28.839917,"lng":-51.889542},"asciiName":"Guapore"},{"name":"São Valentim do Sul","state":"RS","location":{"lat":-29.045056,"lng":-51.768356},"asciiName":"Sao Valentim do Sul"},{"name":"Cotiporã","state":"RS","location":{"lat":-28.989106,"lng":-51.697067},"asciiName":"Cotipora"},{"name":"Fagundes Varela","state":"RS","location":{"lat":-28.879386,"lng":-51.701425},"asciiName":"Fagundes Varela"},{"name":"Garibaldi","state":"RS","location":{"lat":-29.258979,"lng":-51.535179},"asciiName":"Garibaldi"},{"name":"Monte Belo do Sul","state":"RS","location":{"lat":-29.16074,"lng":-51.633263},"asciiName":"Monte Belo do Sul"},{"name":"Bento Gonçalves","state":"RS","location":{"lat":-29.166212,"lng":-51.516476},"asciiName":"Bento Goncalves"},{"name":"Carlos Barbosa","state":"RS","location":{"lat":-29.296949,"lng":-51.502847},"asciiName":"Carlos Barbosa"},{"name":"Veranópolis","state":"RS","location":{"lat":-28.931197,"lng":-51.551614},"asciiName":"Veranopolis"},{"name":"Vila Flores","state":"RS","location":{"lat":-28.859825,"lng":-51.550371},"asciiName":"Vila Flores"},{"name":"Nova Roma do Sul","state":"RS","location":{"lat":-28.988173,"lng":-51.409511},"asciiName":"Nova Roma do Sul"},{"name":"Vista Alegre do Prata","state":"RS","location":{"lat":-28.805218,"lng":-51.79465},"asciiName":"Vista Alegre do Prata"},{"name":"Paraí","state":"RS","location":{"lat":-28.596384,"lng":-51.789602},"asciiName":"Parai"},{"name":"Nova Bassano","state":"RS","location":{"lat":-28.729088,"lng":-51.707194},"asciiName":"Nova Bassano"},{"name":"Nova Araçá","state":"RS","location":{"lat":-28.653741,"lng":-51.745802},"asciiName":"Nova Araca"},{"name":"São Domingos do Sul","state":"RS","location":{"lat":-28.531151,"lng":-51.88598},"asciiName":"Sao Domingos do Sul"},{"name":"Vanini","state":"RS","location":{"lat":-28.475833,"lng":-51.844723},"asciiName":"Vanini"},{"name":"David Canabarro","state":"RS","location":{"lat":-28.384907,"lng":-51.848205},"asciiName":"David Canabarro"},{"name":"Ciríaco","state":"RS","location":{"lat":-28.341913,"lng":-51.874143},"asciiName":"Ciriaco"},{"name":"Guabiju","state":"RS","location":{"lat":-28.542083,"lng":-51.69483},"asciiName":"Guabiju"},{"name":"São Jorge","state":"RS","location":{"lat":-28.498445,"lng":-51.706422},"asciiName":"Sao Jorge"},{"name":"Muliterno","state":"RS","location":{"lat":-28.325299,"lng":-51.769675},"asciiName":"Muliterno"},{"name":"Passo Fundo","state":"RS","location":{"lat":-28.257564,"lng":-52.409112},"asciiName":"Passo Fundo"},{"name":"Coxilha","state":"RS","location":{"lat":-28.12797,"lng":-52.302343},"asciiName":"Coxilha"},{"name":"Mato Castelhano","state":"RS","location":{"lat":-28.280019,"lng":-52.193231},"asciiName":"Mato Castelhano"},{"name":"Ipiranga do Sul","state":"RS","location":{"lat":-27.940366,"lng":-52.427124},"asciiName":"Ipiranga do Sul"},{"name":"Erebango","state":"RS","location":{"lat":-27.854386,"lng":-52.300486},"asciiName":"Erebango"},{"name":"Sertão","state":"RS","location":{"lat":-27.979782,"lng":-52.25878},"asciiName":"Sertao"},{"name":"Estação","state":"RS","location":{"lat":-27.913468,"lng":-52.263536},"asciiName":"Estacao"},{"name":"Getúlio Vargas","state":"RS","location":{"lat":-27.891093,"lng":-52.229357},"asciiName":"Getulio Vargas"},{"name":"Vila Lângaro","state":"RS","location":{"lat":-28.106184,"lng":-52.143795},"asciiName":"Vila Langaro"},{"name":"Água Santa","state":"RS","location":{"lat":-28.167228,"lng":-52.031004},"asciiName":"Agua Santa"},{"name":"Tapejara","state":"RS","location":{"lat":-28.065237,"lng":-52.009665},"asciiName":"Tapejara"},{"name":"Floriano Peixoto","state":"RS","location":{"lat":-27.861391,"lng":-52.083775},"asciiName":"Floriano Peixoto"},{"name":"Charrua","state":"RS","location":{"lat":-27.949268,"lng":-52.015005},"asciiName":"Charrua"},{"name":"Barão de Cotegipe","state":"RS","location":{"lat":-27.620785,"lng":-52.37982},"asciiName":"Barao de Cotegipe"},{"name":"Erechim","state":"RS","location":{"lat":-27.63638,"lng":-52.26969},"asciiName":"Erechim"},{"name":"Barra do Rio Azul","state":"RS","location":{"lat":-27.406855,"lng":-52.408375},"asciiName":"Barra do Rio Azul"},{"name":"Itá","state":"SC","location":{"lat":-27.290666,"lng":-52.321187},"asciiName":"Ita"},{"name":"Aratiba","state":"RS","location":{"lat":-27.397787,"lng":-52.297461},"asciiName":"Aratiba"},{"name":"Áurea","state":"RS","location":{"lat":-27.693586,"lng":-52.050506},"asciiName":"Aurea"},{"name":"Gaurama","state":"RS","location":{"lat":-27.585587,"lng":-52.091529},"asciiName":"Gaurama"},{"name":"Nova Pádua","state":"RS","location":{"lat":-29.027509,"lng":-51.309752},"asciiName":"Nova Padua"},{"name":"Antônio Prado","state":"RS","location":{"lat":-28.856544,"lng":-51.288263},"asciiName":"Antonio Prado"},{"name":"Flores da Cunha","state":"RS","location":{"lat":-29.026147,"lng":-51.187457},"asciiName":"Flores da Cunha"},{"name":"São Marcos","state":"RS","location":{"lat":-28.967659,"lng":-51.069559},"asciiName":"Sao Marcos"},{"name":"Ipê","state":"RS","location":{"lat":-28.817098,"lng":-51.285931},"asciiName":"Ipe"},{"name":"Muitos Capões","state":"RS","location":{"lat":-28.313183,"lng":-51.183593},"asciiName":"Muitos Capoes"},{"name":"Campestre da Serra","state":"RS","location":{"lat":-28.792585,"lng":-51.094148},"asciiName":"Campestre da Serra"},{"name":"Vacaria","state":"RS","location":{"lat":-28.507868,"lng":-50.941791},"asciiName":"Vacaria"},{"name":"Canela","state":"RS","location":{"lat":-29.355993,"lng":-50.811921},"asciiName":"Canela"},{"name":"Jaquirana","state":"RS","location":{"lat":-28.881098,"lng":-50.363681},"asciiName":"Jaquirana"},{"name":"Monte Alegre dos Campos","state":"RS","location":{"lat":-28.680495,"lng":-50.783385},"asciiName":"Monte Alegre dos Campos"},{"name":"Bom Jesus","state":"RS","location":{"lat":-28.669703,"lng":-50.429453},"asciiName":"Bom Jesus"},{"name":"Esmeralda","state":"RS","location":{"lat":-28.051762,"lng":-51.19327},"asciiName":"Esmeralda"},{"name":"Cerro Negro","state":"SC","location":{"lat":-27.794205,"lng":-50.867264},"asciiName":"Cerro Negro"},{"name":"Celso Ramos","state":"SC","location":{"lat":-27.632708,"lng":-51.335003},"asciiName":"Celso Ramos"},{"name":"Anita Garibaldi","state":"SC","location":{"lat":-27.689743,"lng":-51.127143},"asciiName":"Anita Garibaldi"},{"name":"Campos Novos","state":"SC","location":{"lat":-27.400184,"lng":-51.227589},"asciiName":"Campos Novos"},{"name":"Abdon Batista","state":"SC","location":{"lat":-27.612628,"lng":-51.023275},"asciiName":"Abdon Batista"},{"name":"Vargem","state":"SC","location":{"lat":-27.486714,"lng":-50.972355},"asciiName":"Vargem"},{"name":"Brunópolis","state":"SC","location":{"lat":-27.305781,"lng":-50.86837},"asciiName":"Brunopolis"},{"name":"Campo Belo do Sul","state":"SC","location":{"lat":-27.89754,"lng":-50.75955},"asciiName":"Campo Belo do Sul"},{"name":"Capão Alto","state":"SC","location":{"lat":-27.938936,"lng":-50.509788},"asciiName":"Capao Alto"},{"name":"São José do Cerrito","state":"SC","location":{"lat":-27.660189,"lng":-50.573305},"asciiName":"Sao Jose do Cerrito"},{"name":"Correia Pinto","state":"SC","location":{"lat":-27.587688,"lng":-50.361448},"asciiName":"Correia Pinto"},{"name":"Curitibanos","state":"SC","location":{"lat":-27.282373,"lng":-50.581638},"asciiName":"Curitibanos"},{"name":"Ponte Alta","state":"SC","location":{"lat":-27.483497,"lng":-50.376404},"asciiName":"Ponte Alta"},{"name":"São Cristovão do Sul","state":"SC","location":{"lat":-27.266627,"lng":-50.438807},"asciiName":"Sao Cristovao do Sul"},{"name":"Seara","state":"SC","location":{"lat":-27.156432,"lng":-52.299045},"asciiName":"Seara"},{"name":"Xavantina","state":"SC","location":{"lat":-27.0667,"lng":-52.342994},"asciiName":"Xavantina"},{"name":"Xanxerê","state":"SC","location":{"lat":-26.874694,"lng":-52.403579},"asciiName":"Xanxere"},{"name":"Faxinal dos Guedes","state":"SC","location":{"lat":-26.845104,"lng":-52.259624},"asciiName":"Faxinal dos Guedes"},{"name":"Arabutã","state":"SC","location":{"lat":-27.158691,"lng":-52.142263},"asciiName":"Arabuta"},{"name":"Ipumirim","state":"SC","location":{"lat":-27.077215,"lng":-52.128873},"asciiName":"Ipumirim"},{"name":"Lindóia do Sul","state":"SC","location":{"lat":-27.054472,"lng":-52.068955},"asciiName":"Lindoia do Sul"},{"name":"Concórdia","state":"SC","location":{"lat":-27.233461,"lng":-52.025962},"asciiName":"Concordia"},{"name":"Vargeão","state":"SC","location":{"lat":-26.862088,"lng":-52.154907},"asciiName":"Vargeao"},{"name":"Passos Maia","state":"SC","location":{"lat":-26.782945,"lng":-52.056768},"asciiName":"Passos Maia"},{"name":"Ponte Serrada","state":"SC","location":{"lat":-26.873278,"lng":-52.01125},"asciiName":"Ponte Serrada"},{"name":"Bom Jesus","state":"SC","location":{"lat":-26.732595,"lng":-52.3919},"asciiName":"Bom Jesus"},{"name":"Ouro Verde","state":"SC","location":{"lat":-26.692027,"lng":-52.310845},"asciiName":"Ouro Verde"},{"name":"Abelardo Luz","state":"SC","location":{"lat":-26.571585,"lng":-52.322881},"asciiName":"Abelardo Luz"},{"name":"Clevelândia","state":"PR","location":{"lat":-26.404288,"lng":-52.350794},"asciiName":"Clevelandia"},{"name":"Palmas","state":"PR","location":{"lat":-26.483868,"lng":-51.988812},"asciiName":"Palmas"},{"name":"Coronel Domingos Soares","state":"PR","location":{"lat":-26.227684,"lng":-52.03565},"asciiName":"Coronel Domingos Soares"},{"name":"Presidente Castello Branco","state":"SC","location":{"lat":-27.224778,"lng":-51.803342},"asciiName":"Presidente Castello Branco"},{"name":"Irani","state":"SC","location":{"lat":-27.028684,"lng":-51.901204},"asciiName":"Irani"},{"name":"Jaborá","state":"SC","location":{"lat":-27.178233,"lng":-51.727899},"asciiName":"Jabora"},{"name":"Vargem Bonita","state":"SC","location":{"lat":-27.005456,"lng":-51.740238},"asciiName":"Vargem Bonita"},{"name":"Catanduvas","state":"SC","location":{"lat":-27.068972,"lng":-51.660158},"asciiName":"Catanduvas"},{"name":"Lacerdópolis","state":"SC","location":{"lat":-27.257941,"lng":-51.55766},"asciiName":"Lacerdopolis"},{"name":"Joaçaba","state":"SC","location":{"lat":-27.172105,"lng":-51.510788},"asciiName":"Joacaba"},{"name":"Herval d'Oeste","state":"SC","location":{"lat":-27.1903,"lng":-51.491728},"asciiName":"Herval d'Oeste"},{"name":"Luzerna","state":"SC","location":{"lat":-27.130363,"lng":-51.468221},"asciiName":"Luzerna"},{"name":"Treze Tílias","state":"SC","location":{"lat":-27.002604,"lng":-51.408444},"asciiName":"Treze Tilias"},{"name":"Água Doce","state":"SC","location":{"lat":-26.998452,"lng":-51.552812},"asciiName":"Agua Doce"},{"name":"Salto Veloso","state":"SC","location":{"lat":-26.902991,"lng":-51.404337},"asciiName":"Salto Veloso"},{"name":"Honório Serpa","state":"PR","location":{"lat":-26.139021,"lng":-52.384839},"asciiName":"Honorio Serpa"},{"name":"Mangueirinha","state":"PR","location":{"lat":-25.942102,"lng":-52.174275},"asciiName":"Mangueirinha"},{"name":"Reserva do Iguaçu","state":"PR","location":{"lat":-25.831905,"lng":-52.027215},"asciiName":"Reserva do Iguacu"},{"name":"Porto Barreiro","state":"PR","location":{"lat":-25.547696,"lng":-52.406744},"asciiName":"Porto Barreiro"},{"name":"Laranjeiras do Sul","state":"PR","location":{"lat":-25.407672,"lng":-52.410854},"asciiName":"Laranjeiras do Sul"},{"name":"Virmond","state":"PR","location":{"lat":-25.382911,"lng":-52.198715},"asciiName":"Virmond"},{"name":"Foz do Jordão","state":"PR","location":{"lat":-25.737094,"lng":-52.118829},"asciiName":"Foz do Jordao"},{"name":"Candói","state":"PR","location":{"lat":-25.575847,"lng":-52.040876},"asciiName":"Candoi"},{"name":"Cantagalo","state":"PR","location":{"lat":-25.373359,"lng":-52.119818},"asciiName":"Cantagalo"},{"name":"Goioxim","state":"PR","location":{"lat":-25.192652,"lng":-51.991091},"asciiName":"Goioxim"},{"name":"Pinhão","state":"PR","location":{"lat":-25.694388,"lng":-51.653595},"asciiName":"Pinhao"},{"name":"Bituruna","state":"PR","location":{"lat":-26.160746,"lng":-51.551792},"asciiName":"Bituruna"},{"name":"Guarapuava","state":"PR","location":{"lat":-25.390237,"lng":-51.462317},"asciiName":"Guarapuava"},{"name":"Ibicaré","state":"SC","location":{"lat":-27.088141,"lng":-51.368101},"asciiName":"Ibicare"},{"name":"Ibiam","state":"SC","location":{"lat":-27.184658,"lng":-51.235154},"asciiName":"Ibiam"},{"name":"Tangará","state":"SC","location":{"lat":-27.099576,"lng":-51.247253},"asciiName":"Tangara"},{"name":"Pinheiro Preto","state":"SC","location":{"lat":-27.048318,"lng":-51.224249},"asciiName":"Pinheiro Preto"},{"name":"Iomerê","state":"SC","location":{"lat":-27.00192,"lng":-51.244227},"asciiName":"Iomere"},{"name":"Videira","state":"SC","location":{"lat":-27.008624,"lng":-51.154274},"asciiName":"Videira"},{"name":"Arroio Trinta","state":"SC","location":{"lat":-26.925655,"lng":-51.340719},"asciiName":"Arroio Trinta"},{"name":"Macieira","state":"SC","location":{"lat":-26.855232,"lng":-51.37051},"asciiName":"Macieira"},{"name":"Monte Carlo","state":"SC","location":{"lat":-27.223916,"lng":-50.980785},"asciiName":"Monte Carlo"},{"name":"Fraiburgo","state":"SC","location":{"lat":-27.023288,"lng":-50.919978},"asciiName":"Fraiburgo"},{"name":"Rio das Antas","state":"SC","location":{"lat":-26.894615,"lng":-51.067414},"asciiName":"Rio das Antas"},{"name":"Pérola","state":"PR","location":{"lat":-23.803898,"lng":-53.683353},"asciiName":"Perola"},{"name":"Xambrê","state":"PR","location":{"lat":-23.736409,"lng":-53.48843},"asciiName":"Xambre"},{"name":"Vila Alta","state":"PR","location":{"lat":-23.508137,"lng":-53.728537},"asciiName":"Vila Alta"},{"name":"Icaraíma","state":"PR","location":{"lat":-23.394354,"lng":-53.614979},"asciiName":"Icaraima"},{"name":"Querência do Norte","state":"PR","location":{"lat":-23.083758,"lng":-53.483022},"asciiName":"Querencia do Norte"},{"name":"Cascavel","state":"PR","location":{"lat":-24.957301,"lng":-53.459005},"asciiName":"Cascavel"},{"name":"Corbélia","state":"PR","location":{"lat":-24.797122,"lng":-53.300576},"asciiName":"Corbelia"},{"name":"Ibema","state":"PR","location":{"lat":-25.111335,"lng":-53.014616},"asciiName":"Ibema"},{"name":"Campo Bonito","state":"PR","location":{"lat":-25.029445,"lng":-52.993933},"asciiName":"Campo Bonito"},{"name":"Braganey","state":"PR","location":{"lat":-24.81734,"lng":-53.121787},"asciiName":"Braganey"},{"name":"Anahy","state":"PR","location":{"lat":-24.644865,"lng":-53.133235},"asciiName":"Anahy"},{"name":"Iguatu","state":"PR","location":{"lat":-24.715277,"lng":-53.082724},"asciiName":"Iguatu"},{"name":"Jesuítas","state":"PR","location":{"lat":-24.383918,"lng":-53.38492},"asciiName":"Jesuitas"},{"name":"Iracema do Oeste","state":"PR","location":{"lat":-24.426155,"lng":-53.35279},"asciiName":"Iracema do Oeste"},{"name":"Cafelândia","state":"PR","location":{"lat":-24.618862,"lng":-53.320705},"asciiName":"Cafelandia"},{"name":"Nova Aurora","state":"PR","location":{"lat":-24.528859,"lng":-53.257449},"asciiName":"Nova Aurora"},{"name":"Formosa do Oeste","state":"PR","location":{"lat":-24.295097,"lng":-53.311378},"asciiName":"Formosa do Oeste"},{"name":"Ubiratã","state":"PR","location":{"lat":-24.539292,"lng":-52.986485},"asciiName":"Ubirata"},{"name":"Quarto Centenário","state":"PR","location":{"lat":-24.277499,"lng":-53.075884},"asciiName":"Quarto Centenario"},{"name":"Goioerê","state":"PR","location":{"lat":-24.183481,"lng":-53.024842},"asciiName":"Goioere"},{"name":"Guaraniaçu","state":"PR","location":{"lat":-25.096822,"lng":-52.875531},"asciiName":"Guaraniacu"},{"name":"Altamira do Paraná","state":"PR","location":{"lat":-24.798293,"lng":-52.712829},"asciiName":"Altamira do Parana"},{"name":"Diamante do Sul","state":"PR","location":{"lat":-25.035007,"lng":-52.676782},"asciiName":"Diamante do Sul"},{"name":"Nova Cantu","state":"PR","location":{"lat":-24.672324,"lng":-52.566078},"asciiName":"Nova Cantu"},{"name":"Laranjal","state":"PR","location":{"lat":-24.886153,"lng":-52.470041},"asciiName":"Laranjal"},{"name":"Juranda","state":"PR","location":{"lat":-24.420866,"lng":-52.841344},"asciiName":"Juranda"},{"name":"Campina da Lagoa","state":"PR","location":{"lat":-24.589323,"lng":-52.79759},"asciiName":"Campina da Lagoa"},{"name":"Rancho Alegre D'Oeste","state":"PR","location":{"lat":-24.303548,"lng":-52.949883},"asciiName":"Rancho Alegre D'Oeste"},{"name":"Boa Esperança","state":"PR","location":{"lat":-24.246738,"lng":-52.78756},"asciiName":"Boa Esperanca"},{"name":"Janiópolis","state":"PR","location":{"lat":-24.140124,"lng":-52.77836},"asciiName":"Janiopolis"},{"name":"Mamborê","state":"PR","location":{"lat":-24.316951,"lng":-52.527119},"asciiName":"Mambore"},{"name":"Alto Piquiri","state":"PR","location":{"lat":-24.022427,"lng":-53.440045},"asciiName":"Alto Piquiri"},{"name":"Perobal","state":"PR","location":{"lat":-23.894861,"lng":-53.409838},"asciiName":"Perobal"},{"name":"Umuarama","state":"PR","location":{"lat":-23.765634,"lng":-53.32011},"asciiName":"Umuarama"},{"name":"Mariluz","state":"PR","location":{"lat":-24.008888,"lng":-53.143242},"asciiName":"Mariluz"},{"name":"Moreira Sales","state":"PR","location":{"lat":-24.052657,"lng":-53.00564},"asciiName":"Moreira Sales"},{"name":"Maria Helena","state":"PR","location":{"lat":-23.615754,"lng":-53.205333},"asciiName":"Maria Helena"},{"name":"Cruzeiro do Oeste","state":"PR","location":{"lat":-23.779943,"lng":-53.077442},"asciiName":"Cruzeiro do Oeste"},{"name":"Ivaté","state":"PR","location":{"lat":-23.407206,"lng":-53.368705},"asciiName":"Ivate"},{"name":"Douradina","state":"PR","location":{"lat":-23.38072,"lng":-53.291794},"asciiName":"Douradina"},{"name":"Nova Olímpia","state":"PR","location":{"lat":-23.470252,"lng":-53.089799},"asciiName":"Nova Olimpia"},{"name":"Araruna","state":"PR","location":{"lat":-23.9315,"lng":-52.502101},"asciiName":"Araruna"},{"name":"Cianorte","state":"PR","location":{"lat":-23.659859,"lng":-52.605444},"asciiName":"Cianorte"},{"name":"Terra Boa","state":"PR","location":{"lat":-23.768329,"lng":-52.447002},"asciiName":"Terra Boa"},{"name":"Jussara","state":"PR","location":{"lat":-23.621931,"lng":-52.46931},"asciiName":"Jussara"},{"name":"Coxim","state":"MS","location":{"lat":-18.501299,"lng":-54.750991},"asciiName":"Coxim"},{"name":"Pedro Gomes","state":"MS","location":{"lat":-18.099622,"lng":-54.550663},"asciiName":"Pedro Gomes"},{"name":"Sonora","state":"MS","location":{"lat":-17.569775,"lng":-54.755112},"asciiName":"Sonora"},{"name":"Itaipulândia","state":"PR","location":{"lat":-25.136623,"lng":-54.300102},"asciiName":"Itaipulandia"},{"name":"Santa Helena","state":"PR","location":{"lat":-24.858494,"lng":-54.33601},"asciiName":"Santa Helena"},{"name":"Missal","state":"PR","location":{"lat":-25.091855,"lng":-54.247664},"asciiName":"Missal"},{"name":"Ramilândia","state":"PR","location":{"lat":-25.119472,"lng":-54.023015},"asciiName":"Ramilandia"},{"name":"Diamante D'Oeste","state":"PR","location":{"lat":-24.941858,"lng":-54.105157},"asciiName":"Diamante D'Oeste"},{"name":"Entre Rios do Oeste","state":"PR","location":{"lat":-24.70421,"lng":-54.238507},"asciiName":"Entre Rios do Oeste"},{"name":"São José das Palmeiras","state":"PR","location":{"lat":-24.836883,"lng":-54.057225},"asciiName":"Sao Jose das Palmeiras"},{"name":"Pato Bragado","state":"PR","location":{"lat":-24.624625,"lng":-54.228115},"asciiName":"Pato Bragado"},{"name":"Mercedes","state":"PR","location":{"lat":-24.453791,"lng":-54.161826},"asciiName":"Mercedes"},{"name":"Marechal Cândido Rondon","state":"PR","location":{"lat":-24.557891,"lng":-54.056115},"asciiName":"Marechal Candido Rondon"},{"name":"Terra Roxa","state":"PR","location":{"lat":-24.157455,"lng":-54.098816},"asciiName":"Terra Roxa"},{"name":"Vera Cruz do Oeste","state":"PR","location":{"lat":-25.057688,"lng":-53.877096},"asciiName":"Vera Cruz do Oeste"},{"name":"Céu Azul","state":"PR","location":{"lat":-25.148876,"lng":-53.841473},"asciiName":"Ceu Azul"},{"name":"São Pedro do Iguaçu","state":"PR","location":{"lat":-24.937311,"lng":-53.852141},"asciiName":"Sao Pedro do Iguacu"},{"name":"Ouro Verde do Oeste","state":"PR","location":{"lat":-24.793258,"lng":-53.904303},"asciiName":"Ouro Verde do Oeste"},{"name":"Toledo","state":"PR","location":{"lat":-24.724641,"lng":-53.741177},"asciiName":"Toledo"},{"name":"Santa Tereza do Oeste","state":"PR","location":{"lat":-25.054316,"lng":-53.627417},"asciiName":"Santa Tereza do Oeste"},{"name":"Quatro Pontes","state":"PR","location":{"lat":-24.575152,"lng":-53.975885},"asciiName":"Quatro Pontes"},{"name":"Nova Santa Rosa","state":"PR","location":{"lat":-24.469293,"lng":-53.955249},"asciiName":"Nova Santa Rosa"},{"name":"Maripá","state":"PR","location":{"lat":-24.419978,"lng":-53.828641},"asciiName":"Maripa"},{"name":"Palotina","state":"PR","location":{"lat":-24.286784,"lng":-53.840422},"asciiName":"Palotina"},{"name":"Tupãssi","state":"PR","location":{"lat":-24.587887,"lng":-53.51051},"asciiName":"Tupassi"},{"name":"Assis Chateaubriand","state":"PR","location":{"lat":-24.416826,"lng":-53.521327},"asciiName":"Assis Chateaubriand"},{"name":"Brasilândia do Sul","state":"PR","location":{"lat":-24.197762,"lng":-53.527527},"asciiName":"Brasilandia do Sul"},{"name":"Japorã","state":"MS","location":{"lat":-23.890325,"lng":-54.405946},"asciiName":"Japora"},{"name":"Andrelândia","state":"MG","location":{"lat":-21.741088,"lng":-44.31169},"asciiName":"Andrelandia"},{"name":"Arantina","state":"MG","location":{"lat":-21.910171,"lng":-44.255519},"asciiName":"Arantina"},{"name":"Bom Jardim de Minas","state":"MG","location":{"lat":-21.947875,"lng":-44.188498},"asciiName":"Bom Jardim de Minas"},{"name":"Santana do Garambéu","state":"MG","location":{"lat":-21.598344,"lng":-44.105044},"asciiName":"Santana do Garambeu"},{"name":"Madre de Deus de Minas","state":"MG","location":{"lat":-21.483017,"lng":-44.32873},"asciiName":"Madre de Deus de Minas"},{"name":"Conceição da Barra de Minas","state":"MG","location":{"lat":-21.131558,"lng":-44.472901},"asciiName":"Conceicao da Barra de Minas"},{"name":"Ritápolis","state":"MG","location":{"lat":-21.027564,"lng":-44.320435},"asciiName":"Ritapolis"},